[
  {
    "storeNo": 362,
    "name": "EP EVJE",
    "storeNoName": "362 EP EVJE",
    "latitude": 58.58013,
    "longitude": 7.78815,
    "county": "Agder",
    "physicalStore": true,
    "municipality": "EVJE OG HORNNES",
    "countryRegion": "Sørlandet",
    "postalCity": "EVJE",
    "postalCode": 4735
  },
  {
    "storeNo": 363,
    "name": "EP HOV",
    "storeNoName": "363 EP HOV",
    "latitude": 60.69716,
    "longitude": 10.35335,
    "county": "Innlandet",
    "physicalStore": true,
    "municipality": "SØNDRE LAND",
    "countryRegion": "Østlandet",
    "postalCity": "HOV",
    "postalCode": 2860
  },
  {
    "storeNo": 364,
    "name": "EP INDRE ARNA",
    "storeNoName": "364 EP INDRE ARNA",
    "latitude": 60.43358,
    "longitude": 5.46294,
    "county": "Vestland",
    "physicalStore": true,
    "municipality": "BERGEN",
    "countryRegion": "Vestlandet",
    "postalCity": "INDRE ARNA",
    "postalCode": 5260
  },
  {
    "storeNo": 385,
    "name": "EP KONNERUD",
    "storeNoName": "385 EP KONNERUD",
    "latitude": 59.71786,
    "longitude": 10.1489,
    "county": "Buskerud",
    "physicalStore": true,
    "municipality": "DRAMMEN",
    "countryRegion": "Østlandet",
    "postalCity": "DRAMMEN",
    "postalCode": 3032
  },
  {
    "storeNo": 428,
    "name": "EP RØROS",
    "storeNoName": "428 EP RØROS",
    "latitude": 62.57427,
    "longitude": 11.37851,
    "county": "Trøndelag",
    "physicalStore": true,
    "municipality": "RØROS",
    "countryRegion": "Trøndelag",
    "postalCity": "RØROS",
    "postalCode": 7374
  },
  {
    "storeNo": 486,
    "name": "EP SANDANE",
    "storeNoName": "486 EP SANDANE",
    "latitude": 61.776,
    "longitude": 6.2132,
    "county": "Vestland",
    "physicalStore": true,
    "municipality": "GLOPPEN",
    "countryRegion": "Vestlandet",
    "postalCity": "SANDANE",
    "postalCode": 6823
  },
  {
    "storeNo": 368,
    "name": "EP SUNNDALSØRA",
    "storeNoName": "368 EP SUNNDALSØRA",
    "latitude": 62.67364,
    "longitude": 8.56382,
    "county": "Møre og Romsdal",
    "physicalStore": true,
    "municipality": "SUNNDAL",
    "countryRegion": "Vestlandet",
    "postalCity": "SUNNDALSØRA",
    "postalCode": 6600
  },
  {
    "storeNo": 351,
    "name": "EP SAUDA",
    "storeNoName": "351 EP SAUDA",
    "latitude": 59.65072,
    "longitude": 6.35414,
    "county": "Rogaland",
    "physicalStore": true,
    "municipality": "SAUDA",
    "countryRegion": "Vestlandet",
    "postalCity": "SAUDA",
    "postalCode": 4200
  },
  {
    "storeNo": 485,
    "name": "EP STRYN",
    "storeNoName": "485 EP STRYN",
    "latitude": 61.90259,
    "longitude": 6.71028,
    "county": "Vestland",
    "physicalStore": true,
    "municipality": "STRYN",
    "countryRegion": "Vestlandet",
    "postalCity": "STRYN",
    "postalCode": 6783
  },
  {
    "storeNo": 575,
    "name": "EP GANDDAL",
    "storeNoName": "575 EP GANDDAL",
    "latitude": 58.82024,
    "longitude": 5.7123,
    "county": "Rogaland",
    "physicalStore": true,
    "municipality": "SANDNES",
    "countryRegion": "Vestlandet",
    "postalCity": "SANDNES",
    "postalCode": 4323
  },
  {
    "storeNo": 277,
    "name": "EP HITRA",
    "storeNoName": "277 EP HITRA",
    "latitude": 63.60638,
    "longitude": 8.96961,
    "county": "Trøndelag",
    "physicalStore": true,
    "municipality": "HITRA",
    "countryRegion": "Trøndelag",
    "postalCity": "HITRA",
    "postalCode": 7240
  },
  {
    "storeNo": 376,
    "name": "EP FLÅ",
    "storeNoName": "376 EP FLÅ",
    "latitude": 60.43021,
    "longitude": 9.46198,
    "county": "Buskerud",
    "physicalStore": true,
    "municipality": "FLÅ",
    "countryRegion": "Østlandet",
    "postalCity": "FLÅ",
    "postalCode": 3539
  },
  {
    "storeNo": 4,
    "name": "IKKE BRUK",
    "storeNoName": "004 IKKE BRUK",
    "latitude": null,
    "longitude": null,
    "county": "",
    "physicalStore": true,
    "municipality": "",
    "countryRegion": "",
    "postalCity": "",
    "postalCode": null
  },
  {
    "storeNo": 335,
    "name": "EP MOLDE",
    "storeNoName": "335 EP MOLDE",
    "latitude": 62.73893,
    "longitude": 7.18001,
    "county": "Møre og Romsdal",
    "physicalStore": true,
    "municipality": "MOLDE",
    "countryRegion": "Vestlandet",
    "postalCity": "MOLDE",
    "postalCode": 6415
  },
  {
    "storeNo": 369,
    "name": "EP JUVIK",
    "storeNoName": "369 EP JUVIK",
    "latitude": 60.42702,
    "longitude": 5.19261,
    "county": "Vestland",
    "physicalStore": true,
    "municipality": "ASKØY",
    "countryRegion": "Vestlandet",
    "postalCity": "KLEPPESTØ",
    "postalCode": 5300
  },
  {
    "storeNo": 378,
    "name": "EP SKOTTERUD",
    "storeNoName": "378 EP SKOTTERUD",
    "latitude": 59.98619,
    "longitude": 12.12206,
    "county": "Innlandet",
    "physicalStore": true,
    "municipality": "EIDSKOG",
    "countryRegion": "Østlandet",
    "postalCity": "SKOTTERUD",
    "postalCode": 2230
  },
  {
    "storeNo": 490,
    "name": "EP VINSTRA",
    "storeNoName": "490 EP VINSTRA",
    "latitude": 61.59332,
    "longitude": 9.72765,
    "county": "Innlandet",
    "physicalStore": true,
    "municipality": "NORD-FRON",
    "countryRegion": "Østlandet",
    "postalCity": "VINSTRA",
    "postalCode": 2640
  },
  {
    "storeNo": 61,
    "name": "EP BRØNNØYSUND",
    "storeNoName": "061 EP BRØNNØYSUND",
    "latitude": 65.49199,
    "longitude": 12.2413,
    "county": "Nordland",
    "physicalStore": true,
    "municipality": "BRØNNØY",
    "countryRegion": "Nord-Norge",
    "postalCity": "BRØNNØYSUND",
    "postalCode": 8907
  },
  {
    "storeNo": 398,
    "name": "EP SKI",
    "storeNoName": "398 EP SKI",
    "latitude": 59.71336,
    "longitude": 10.83515,
    "county": "Akershus",
    "physicalStore": true,
    "municipality": "NORDRE FOLLO",
    "countryRegion": "Østlandet",
    "postalCity": "SKI",
    "postalCode": 1400
  },
  {
    "storeNo": 399,
    "name": "EP KRÅKERØY",
    "storeNoName": "399 EP KRÅKERØY",
    "latitude": 59.21209,
    "longitude": 10.92863,
    "county": "Østfold",
    "physicalStore": true,
    "municipality": "FREDRIKSTAD",
    "countryRegion": "Østlandet",
    "postalCity": "KRÅKERØY",
    "postalCode": 1671
  },
  {
    "storeNo": 359,
    "name": "EP JESSHEIM",
    "storeNoName": "359 EP JESSHEIM",
    "latitude": 60.14256,
    "longitude": 11.18056,
    "county": "Akershus",
    "physicalStore": true,
    "municipality": "ULLENSAKER",
    "countryRegion": "Østlandet",
    "postalCity": "JESSHEIM",
    "postalCode": 2050
  },
  {
    "storeNo": 23550,
    "name": "EP Island",
    "storeNoName": "23550 EP Island",
    "latitude": null,
    "longitude": null,
    "county": "",
    "physicalStore": false,
    "municipality": "",
    "countryRegion": "",
    "postalCity": "",
    "postalCode": null
  },
  {
    "storeNo": 391,
    "name": "EP SPYDEBERG",
    "storeNoName": "391 EP SPYDEBERG",
    "latitude": 59.61917,
    "longitude": 11.07851,
    "county": "Østfold",
    "physicalStore": true,
    "municipality": "INDRE ØSTFOLD",
    "countryRegion": "Østlandet",
    "postalCity": "SPYDEBERG",
    "postalCode": 1820
  },
  {
    "storeNo": 408,
    "name": "EP LØTEN",
    "storeNoName": "408 EP LØTEN",
    "latitude": 60.81983,
    "longitude": 11.34207,
    "county": "Innlandet",
    "physicalStore": true,
    "municipality": "LØTEN",
    "countryRegion": "Østlandet",
    "postalCity": "LØTEN",
    "postalCode": 2340
  },
  {
    "storeNo": 370,
    "name": "EP SANDSLI",
    "storeNoName": "370 EP SANDSLI",
    "latitude": 60.30552,
    "longitude": 5.28194,
    "county": "Vestland",
    "physicalStore": true,
    "municipality": "BERGEN",
    "countryRegion": "Vestlandet",
    "postalCity": "SANDSLI",
    "postalCode": 5253
  },
  {
    "storeNo": 420,
    "name": "EP FORUS",
    "storeNoName": "420 EP FORUS",
    "latitude": 58.89606,
    "longitude": 5.70186,
    "county": "Rogaland",
    "physicalStore": true,
    "municipality": "STAVANGER",
    "countryRegion": "Vestlandet",
    "postalCity": "STAVANGER",
    "postalCode": 4033
  },
  {
    "storeNo": 62,
    "name": "EP HAMMERFEST",
    "storeNoName": "062 EP HAMMERFEST",
    "latitude": 70.67857,
    "longitude": 23.66983,
    "county": "Finnmark",
    "physicalStore": true,
    "municipality": "HAMMERFEST",
    "countryRegion": "Nord-Norge",
    "postalCity": "HAMMERFEST",
    "postalCode": 9600
  },
  {
    "storeNo": 421,
    "name": "EP LØRENSKOG",
    "storeNoName": "421 EP LØRENSKOG",
    "latitude": 59.92723,
    "longitude": 10.95752,
    "county": "Akershus",
    "physicalStore": true,
    "municipality": "LØRENSKOG",
    "countryRegion": "Østlandet",
    "postalCity": "LØRENSKOG",
    "postalCode": 1470
  },
  {
    "storeNo": 422,
    "name": "EP VINTERBRO",
    "storeNoName": "422 EP VINTERBRO",
    "latitude": 59.73886,
    "longitude": 10.76585,
    "county": "Akershus",
    "physicalStore": true,
    "municipality": "ÅS",
    "countryRegion": "Østlandet",
    "postalCity": "VINTERBRO",
    "postalCode": 1407
  },
  {
    "storeNo": 409,
    "name": "EP SKREPPESTAD",
    "storeNoName": "409 EP SKREPPESTAD",
    "latitude": 59.04593,
    "longitude": 10.07235,
    "county": "Vestfold",
    "physicalStore": true,
    "municipality": "LARVIK",
    "countryRegion": "Østlandet",
    "postalCity": "LARVIK",
    "postalCode": 3261
  },
  {
    "storeNo": 411,
    "name": "EP SAND",
    "storeNoName": "411 EP SAND",
    "latitude": 60.39259,
    "longitude": 11.54103,
    "county": "Innlandet",
    "physicalStore": true,
    "municipality": "NORD-ODAL",
    "countryRegion": "Østlandet",
    "postalCity": "SAGSTUA",
    "postalCode": 2120
  },
  {
    "storeNo": 424,
    "name": "EP LONEVÅG",
    "storeNoName": "424 EP LONEVÅG",
    "latitude": 60.52619,
    "longitude": 5.49368,
    "county": "Vestland",
    "physicalStore": true,
    "municipality": "OSTERØY",
    "countryRegion": "Vestlandet",
    "postalCity": "LONEVÅG",
    "postalCode": 5282
  },
  {
    "storeNo": 423,
    "name": "EP KIRKENÆR",
    "storeNoName": "423 EP KIRKENÆR",
    "latitude": 60.45675,
    "longitude": 12.05717,
    "county": "Innlandet",
    "physicalStore": true,
    "municipality": "GRUE",
    "countryRegion": "Østlandet",
    "postalCity": "KIRKENÆR",
    "postalCode": 2260
  },
  {
    "storeNo": 9,
    "name": "EP MANDAL KUPPHUSET",
    "storeNoName": "009 EP MANDAL KUPPHUSET",
    "latitude": 58.02436,
    "longitude": 7.46635,
    "county": "Agder",
    "physicalStore": true,
    "municipality": "LINDESNES",
    "countryRegion": "Sørlandet",
    "postalCity": "MANDAL",
    "postalCode": 4515
  },
  {
    "storeNo": 403,
    "name": "EP SKIPTVET",
    "storeNoName": "403 EP SKIPTVET",
    "latitude": 59.47257,
    "longitude": 11.16342,
    "county": "Østfold",
    "physicalStore": true,
    "municipality": "SKIPTVET",
    "countryRegion": "Østlandet",
    "postalCity": "SKIPTVET",
    "postalCode": 1816
  },
  {
    "storeNo": 458,
    "name": "EP FURUSET",
    "storeNoName": "458 EP FURUSET",
    "latitude": 59.94216,
    "longitude": 10.89774,
    "county": "Oslo",
    "physicalStore": true,
    "municipality": "OSLO",
    "countryRegion": "Østlandet",
    "postalCity": "OSLO",
    "postalCode": 1051
  },
  {
    "storeNo": 447,
    "name": "EP NEDENES",
    "storeNoName": "447 EP NEDENES",
    "latitude": 58.41842,
    "longitude": 8.70238,
    "county": "Agder",
    "physicalStore": true,
    "municipality": "ARENDAL",
    "countryRegion": "Sørlandet",
    "postalCity": "NEDENES",
    "postalCode": 4823
  },
  {
    "storeNo": 63,
    "name": "EP MADLA",
    "storeNoName": "063 EP MADLA",
    "latitude": 58.95202,
    "longitude": 5.65727,
    "county": "Rogaland",
    "physicalStore": true,
    "municipality": "STAVANGER",
    "countryRegion": "Vestlandet",
    "postalCity": "HAFRSFJORD",
    "postalCode": 4042
  },
  {
    "storeNo": 457,
    "name": "EP MORTENSRUD",
    "storeNoName": "457 EP MORTENSRUD",
    "latitude": 59.84883,
    "longitude": 10.83064,
    "county": "Oslo",
    "physicalStore": true,
    "municipality": "OSLO",
    "countryRegion": "Østlandet",
    "postalCity": "OSLO",
    "postalCode": 1281
  },
  {
    "storeNo": 460,
    "name": "EP KIRKEBY",
    "storeNoName": "460 EP KIRKEBY",
    "latitude": 60.78383,
    "longitude": 10.69194,
    "county": "Innlandet",
    "physicalStore": true,
    "municipality": "GJØVIK",
    "countryRegion": "Østlandet",
    "postalCity": "GJØVIK",
    "postalCode": 2815
  },
  {
    "storeNo": 459,
    "name": "EP TROMSDALEN",
    "storeNoName": "459 EP TROMSDALEN",
    "latitude": 69.63996,
    "longitude": 18.97086,
    "county": "Troms",
    "physicalStore": true,
    "municipality": "TROMSØ",
    "countryRegion": "Nord-Norge",
    "postalCity": "TROMSDALEN",
    "postalCode": 9020
  },
  {
    "storeNo": 433,
    "name": "EP STOKMARKNES",
    "storeNoName": "433 EP STOKMARKNES",
    "latitude": 68.55797,
    "longitude": 14.94031,
    "county": "Nordland",
    "physicalStore": true,
    "municipality": "HADSEL",
    "countryRegion": "Nord-Norge",
    "postalCity": "STOKMARKNES",
    "postalCode": 8450
  },
  {
    "storeNo": 461,
    "name": "EP OTTESTAD",
    "storeNoName": "461 EP OTTESTAD",
    "latitude": 60.77028,
    "longitude": 11.13187,
    "county": "Innlandet",
    "physicalStore": true,
    "municipality": "STANGE",
    "countryRegion": "Østlandet",
    "postalCity": "OTTESTAD",
    "postalCode": 2312
  },
  {
    "storeNo": 462,
    "name": "EP STRØMSØ",
    "storeNoName": "462 EP STRØMSØ",
    "latitude": 59.73447,
    "longitude": 10.20669,
    "county": "Buskerud",
    "physicalStore": true,
    "municipality": "DRAMMEN",
    "countryRegion": "Østlandet",
    "postalCity": "DRAMMEN",
    "postalCode": 3044
  },
  {
    "storeNo": 464,
    "name": "EP GISKE",
    "storeNoName": "464 EP GISKE",
    "latitude": 62.53268,
    "longitude": 6.12326,
    "county": "Møre og Romsdal",
    "physicalStore": true,
    "municipality": "GISKE",
    "countryRegion": "Vestlandet",
    "postalCity": "VALDERØYA",
    "postalCode": 6050
  },
  {
    "storeNo": 407,
    "name": "EP ENEBAKK",
    "storeNoName": "407 EP ENEBAKK",
    "latitude": 59.72398,
    "longitude": 11.0503,
    "county": "Akershus",
    "physicalStore": true,
    "municipality": "ENEBAKK",
    "countryRegion": "Østlandet",
    "postalCity": "YTRE ENEBAKK",
    "postalCode": 1914
  },
  {
    "storeNo": 410,
    "name": "EP PINDSLE",
    "storeNoName": "410 EP PINDSLE",
    "latitude": 59.14162,
    "longitude": 10.18001,
    "county": "Vestfold",
    "physicalStore": true,
    "municipality": "SANDEFJORD",
    "countryRegion": "Østlandet",
    "postalCity": "SANDEFJORD",
    "postalCode": 3221
  },
  {
    "storeNo": 463,
    "name": "EP BEGBY",
    "storeNoName": "463 EP BEGBY",
    "latitude": 59.2083,
    "longitude": 10.99089,
    "county": "Østfold",
    "physicalStore": true,
    "municipality": "FREDRIKSTAD",
    "countryRegion": "Østlandet",
    "postalCity": "GAMLE FREDRIKSTAD",
    "postalCode": 1639
  },
  {
    "storeNo": 418,
    "name": "EP STRUSSHAMN",
    "storeNoName": "418 EP STRUSSHAMN",
    "latitude": 60.40662,
    "longitude": 5.19456,
    "county": "Vestland",
    "physicalStore": true,
    "municipality": "ASKØY",
    "countryRegion": "Vestlandet",
    "postalCity": "STRUSSHAMN",
    "postalCode": 5302
  },
  {
    "storeNo": 469,
    "name": "EP BODØ",
    "storeNoName": "469 EP BODØ",
    "latitude": 67.27698,
    "longitude": 14.4238,
    "county": "Nordland",
    "physicalStore": true,
    "municipality": "BODØ",
    "countryRegion": "Nord-Norge",
    "postalCity": "BODØ",
    "postalCode": 8008
  },
  {
    "storeNo": 472,
    "name": "EP GRORUD",
    "storeNoName": "472 EP GRORUD",
    "latitude": 59.95948,
    "longitude": 10.88261,
    "county": "Oslo",
    "physicalStore": true,
    "municipality": "OSLO",
    "countryRegion": "Østlandet",
    "postalCity": "OSLO",
    "postalCode": 963
  },
  {
    "storeNo": 475,
    "name": "EP ÅGOTNES",
    "storeNoName": "475 EP ÅGOTNES",
    "latitude": 60.40344,
    "longitude": 5.00186,
    "county": "Vestland",
    "physicalStore": true,
    "municipality": "ØYGARDEN",
    "countryRegion": "Vestlandet",
    "postalCity": "ÅGOTNES",
    "postalCode": 5363
  },
  {
    "storeNo": 476,
    "name": "EP STRANDA",
    "storeNoName": "476 EP STRANDA",
    "latitude": 62.30763,
    "longitude": 6.94808,
    "county": "Møre og Romsdal",
    "physicalStore": true,
    "municipality": "STRANDA",
    "countryRegion": "Vestlandet",
    "postalCity": "STRANDA",
    "postalCode": 6200
  },
  {
    "storeNo": 477,
    "name": "EP JEVNAKER",
    "storeNoName": "477 EP JEVNAKER",
    "latitude": 60.22947,
    "longitude": 10.35494,
    "county": "Akershus",
    "physicalStore": true,
    "municipality": "JEVNAKER",
    "countryRegion": "Østlandet",
    "postalCity": "JEVNAKER",
    "postalCode": 3520
  },
  {
    "storeNo": 473,
    "name": "EP ANDENES",
    "storeNoName": "473 EP ANDENES",
    "latitude": 69.31011,
    "longitude": 16.09885,
    "county": "Nordland",
    "physicalStore": true,
    "municipality": "ANDØY",
    "countryRegion": "Nord-Norge",
    "postalCity": "ANDENES",
    "postalCode": 8480
  },
  {
    "storeNo": 425,
    "name": "EP RÅDE",
    "storeNoName": "425 EP RÅDE",
    "latitude": 59.35817,
    "longitude": 10.83582,
    "county": "Østfold",
    "physicalStore": true,
    "municipality": "RÅDE",
    "countryRegion": "Østlandet",
    "postalCity": "RÅDE",
    "postalCode": 1640
  },
  {
    "storeNo": 404,
    "name": "EP GEILO",
    "storeNoName": "404 EP GEILO",
    "latitude": 60.53359,
    "longitude": 8.20665,
    "county": "Buskerud",
    "physicalStore": true,
    "municipality": "HOL",
    "countryRegion": "Østlandet",
    "postalCity": "GEILO",
    "postalCode": 3580
  },
  {
    "storeNo": 481,
    "name": "EP STRØMMEN",
    "storeNoName": "481 EP STRØMMEN",
    "latitude": 59.94788,
    "longitude": 11.00712,
    "county": "Akershus",
    "physicalStore": true,
    "municipality": "LILLESTRØM",
    "countryRegion": "Østlandet",
    "postalCity": "STRØMMEN",
    "postalCode": 2010
  },
  {
    "storeNo": 478,
    "name": "EP STOVNER",
    "storeNoName": "478 EP STOVNER",
    "latitude": 59.96143,
    "longitude": 10.92658,
    "county": "Oslo",
    "physicalStore": true,
    "municipality": "OSLO",
    "countryRegion": "Østlandet",
    "postalCity": "OSLO",
    "postalCode": 985
  },
  {
    "storeNo": 482,
    "name": "EP VORMSUND",
    "storeNoName": "482 EP VORMSUND",
    "latitude": 60.15059,
    "longitude": 11.40877,
    "county": "Akershus",
    "physicalStore": true,
    "municipality": "NES",
    "countryRegion": "Østlandet",
    "postalCity": "VORMSUND",
    "postalCode": 2160
  },
  {
    "storeNo": 483,
    "name": "EP LAKSEVÅG",
    "storeNoName": "483 EP LAKSEVÅG",
    "latitude": 60.38951,
    "longitude": 5.28701,
    "county": "Vestland",
    "physicalStore": true,
    "municipality": "BERGEN",
    "countryRegion": "Vestlandet",
    "postalCity": "LAKSEVÅG",
    "postalCode": 5163
  },
  {
    "storeNo": 480,
    "name": "EP RÆLINGEN",
    "storeNoName": "480 EP RÆLINGEN",
    "latitude": 59.94667,
    "longitude": 11.03122,
    "county": "Akershus",
    "physicalStore": true,
    "municipality": "RÆLINGEN",
    "countryRegion": "Østlandet",
    "postalCity": "RÆLINGEN",
    "postalCode": 2005
  },
  {
    "storeNo": 432,
    "name": "EP GRASMYR",
    "storeNoName": "432 EP GRASMYR",
    "latitude": 59.03036,
    "longitude": 9.70408,
    "county": "Telemark",
    "physicalStore": true,
    "municipality": "BAMBLE",
    "countryRegion": "Østlandet",
    "postalCity": "STATHELLE",
    "postalCode": 3960
  },
  {
    "storeNo": 479,
    "name": "EP GRAN",
    "storeNoName": "479 EP GRAN",
    "latitude": 60.35392,
    "longitude": 10.57601,
    "county": "Innlandet",
    "physicalStore": true,
    "municipality": "GRAN",
    "countryRegion": "Østlandet",
    "postalCity": "GRAN",
    "postalCode": 2750
  },
  {
    "storeNo": 495,
    "name": "EP BREKSTAD",
    "storeNoName": "495 EP BREKSTAD",
    "latitude": 63.69235,
    "longitude": 9.66151,
    "county": "Trøndelag",
    "physicalStore": true,
    "municipality": "ØRLAND",
    "countryRegion": "Trøndelag",
    "postalCity": "BREKSTAD",
    "postalCode": 7130
  },
  {
    "storeNo": 496,
    "name": "EP TASTA",
    "storeNoName": "496 EP TASTA",
    "latitude": 58.984,
    "longitude": 5.69108,
    "county": "Rogaland",
    "physicalStore": true,
    "municipality": "STAVANGER",
    "countryRegion": "Vestlandet",
    "postalCity": "STAVANGER",
    "postalCode": 4027
  },
  {
    "storeNo": 500,
    "name": "EP KOKSTAD",
    "storeNoName": "500 EP KOKSTAD",
    "latitude": 60.29431,
    "longitude": 5.25325,
    "county": "Vestland",
    "physicalStore": true,
    "municipality": "BERGEN",
    "countryRegion": "Vestlandet",
    "postalCity": "KOKSTAD",
    "postalCode": 5257
  },
  {
    "storeNo": 509,
    "name": "EP LANGEVÅG",
    "storeNoName": "509 EP LANGEVÅG",
    "latitude": 62.4381,
    "longitude": 6.23387,
    "county": "Møre og Romsdal",
    "physicalStore": true,
    "municipality": "SULA",
    "countryRegion": "Vestlandet",
    "postalCity": "LANGEVÅG",
    "postalCode": 6030
  },
  {
    "storeNo": 508,
    "name": "EP DALE",
    "storeNoName": "508 EP DALE",
    "latitude": 61.36311,
    "longitude": 5.39812,
    "county": "Vestland",
    "physicalStore": true,
    "municipality": "FJALER",
    "countryRegion": "Vestlandet",
    "postalCity": "DALE I SUNNFJORD",
    "postalCode": 6963
  },
  {
    "storeNo": 617,
    "name": "EP STJØRDAL",
    "storeNoName": "617 EP STJØRDAL",
    "latitude": 63.46775,
    "longitude": 10.92909,
    "county": "Trøndelag",
    "physicalStore": true,
    "municipality": "STJØRDAL",
    "countryRegion": "Trøndelag",
    "postalCity": "STJØRDAL",
    "postalCode": 7503
  },
  {
    "storeNo": 493,
    "name": "EP ÅRDAL",
    "storeNoName": "493 EP ÅRDAL",
    "latitude": 61.31012,
    "longitude": 7.81507,
    "county": "Vestland",
    "physicalStore": true,
    "municipality": "ÅRDAL",
    "countryRegion": "Vestlandet",
    "postalCity": "ØVRE ÅRDAL",
    "postalCode": 6884
  },
  {
    "storeNo": 578,
    "name": "EP REKNES",
    "storeNoName": "578 EP REKNES",
    "latitude": 62.73401,
    "longitude": 7.13944,
    "county": "Møre og Romsdal",
    "physicalStore": true,
    "municipality": "MOLDE",
    "countryRegion": "Vestlandet",
    "postalCity": "MOLDE",
    "postalCode": 6415
  },
  {
    "storeNo": 571,
    "name": "EP RISØR",
    "storeNoName": "571 EP RISØR",
    "latitude": 58.71516,
    "longitude": 9.17672,
    "county": "Agder",
    "physicalStore": true,
    "municipality": "RISØR",
    "countryRegion": "Sørlandet",
    "postalCity": "RISØR",
    "postalCode": 4950
  },
  {
    "storeNo": 494,
    "name": "EP GRONG",
    "storeNoName": "494 EP GRONG",
    "latitude": 64.46327,
    "longitude": 12.30489,
    "county": "Trøndelag",
    "physicalStore": true,
    "municipality": "GRONG",
    "countryRegion": "Trøndelag",
    "postalCity": "GRONG",
    "postalCode": 7870
  },
  {
    "storeNo": 581,
    "name": "EP LILLEHAMMER NORD",
    "storeNoName": "581 EP LILLEHAMMER NORD",
    "latitude": 61.12904,
    "longitude": 10.44675,
    "county": "Innlandet",
    "physicalStore": true,
    "municipality": "LILLEHAMMER",
    "countryRegion": "Østlandet",
    "postalCity": "LILLEHAMMER",
    "postalCode": 2619
  },
  {
    "storeNo": 492,
    "name": "EP ØRNES",
    "storeNoName": "492 EP ØRNES",
    "latitude": 66.85659,
    "longitude": 13.72455,
    "county": "Nordland",
    "physicalStore": true,
    "municipality": "MELØY",
    "countryRegion": "Nord-Norge",
    "postalCity": "ØRNES",
    "postalCode": 8150
  },
  {
    "storeNo": 580,
    "name": "EP DIGERNES",
    "storeNoName": "580 EP DIGERNES",
    "latitude": 62.49156,
    "longitude": 6.60853,
    "county": "Møre og Romsdal",
    "physicalStore": true,
    "municipality": "ÅLESUND",
    "countryRegion": "Vestlandet",
    "postalCity": "SKODJE",
    "postalCode": 6260
  },
  {
    "storeNo": 800,
    "name": "EP E-HANDEL",
    "storeNoName": "800 EP E-HANDEL",
    "latitude": 59.44581,
    "longitude": 10.72548,
    "county": "Østfold",
    "physicalStore": true,
    "municipality": "MOSS",
    "countryRegion": "Østlandet",
    "postalCity": "MOSS",
    "postalCode": 1599
  },
  {
    "storeNo": 585,
    "name": "EP ØKSNEVAD",
    "storeNoName": "585 EP ØKSNEVAD",
    "latitude": 58.7855,
    "longitude": 5.70552,
    "county": "Rogaland",
    "physicalStore": true,
    "municipality": "KLEPP",
    "countryRegion": "Vestlandet",
    "postalCity": "KLEPP STASJON",
    "postalCode": 4353
  },
  {
    "storeNo": 584,
    "name": "EP RYKKINN",
    "storeNoName": "584 EP RYKKINN",
    "latitude": 59.92403,
    "longitude": 10.48526,
    "county": "Akershus",
    "physicalStore": true,
    "municipality": "BÆRUM",
    "countryRegion": "Østlandet",
    "postalCity": "RYKKINN",
    "postalCode": 1348
  },
  {
    "storeNo": 373,
    "name": "EP FAUSKE",
    "storeNoName": "373 EP FAUSKE",
    "latitude": 67.27133,
    "longitude": 15.39585,
    "county": "Nordland",
    "physicalStore": true,
    "municipality": "FAUSKE",
    "countryRegion": "Nord-Norge",
    "postalCity": "FAUSKE",
    "postalCode": 8208
  },
  {
    "storeNo": 583,
    "name": "EP STOKKE",
    "storeNoName": "583 EP STOKKE",
    "latitude": 59.22141,
    "longitude": 10.30154,
    "county": "Vestfold",
    "physicalStore": true,
    "municipality": "SANDEFJORD",
    "countryRegion": "Østlandet",
    "postalCity": "STOKKE",
    "postalCode": 3160
  },
  {
    "storeNo": 572,
    "name": "EP KJØRBEKK",
    "storeNoName": "572 EP KJØRBEKK",
    "latitude": 59.18374,
    "longitude": 9.60583,
    "county": "Telemark",
    "physicalStore": true,
    "municipality": "SKIEN",
    "countryRegion": "Østlandet",
    "postalCity": "SKIEN",
    "postalCode": 3735
  },
  {
    "storeNo": 591,
    "name": "EP LURA",
    "storeNoName": "591 EP LURA",
    "latitude": 58.87353,
    "longitude": 5.72474,
    "county": "Rogaland",
    "physicalStore": true,
    "municipality": "SANDNES",
    "countryRegion": "Vestlandet",
    "postalCity": "SANDNES",
    "postalCode": 4313
  },
  {
    "storeNo": 593,
    "name": "EP NANNESTAD",
    "storeNoName": "593 EP NANNESTAD",
    "latitude": 60.2204,
    "longitude": 11.01514,
    "county": "Akershus",
    "physicalStore": true,
    "municipality": "NANNESTAD",
    "countryRegion": "Østlandet",
    "postalCity": "NANNESTAD",
    "postalCode": 2030
  },
  {
    "storeNo": 497,
    "name": "EP RJUKAN",
    "storeNoName": "497 EP RJUKAN",
    "latitude": 59.87709,
    "longitude": 8.58783,
    "county": "Telemark",
    "physicalStore": true,
    "municipality": "TINN",
    "countryRegion": "Østlandet",
    "postalCity": "RJUKAN",
    "postalCode": 3660
  },
  {
    "storeNo": 604,
    "name": "EP GUNERIUS CITY",
    "storeNoName": "604 EP GUNERIUS CITY",
    "latitude": 59.91416,
    "longitude": 10.75291,
    "county": "Oslo",
    "physicalStore": true,
    "municipality": "OSLO",
    "countryRegion": "Østlandet",
    "postalCity": "OSLO",
    "postalCode": 184
  },
  {
    "storeNo": 596,
    "name": "EP VESTNES",
    "storeNoName": "596 EP VESTNES",
    "latitude": 62.6214,
    "longitude": 7.09363,
    "county": "Møre og Romsdal",
    "physicalStore": true,
    "municipality": "VESTNES",
    "countryRegion": "Vestlandet",
    "postalCity": "VESTNES",
    "postalCode": 6390
  },
  {
    "storeNo": 597,
    "name": "EP FOSNAVÅG",
    "storeNoName": "597 EP FOSNAVÅG",
    "latitude": 62.32411,
    "longitude": 5.63875,
    "county": "Møre og Romsdal",
    "physicalStore": true,
    "municipality": "HERØY (MØRE OG ROMSDAL)",
    "countryRegion": "Vestlandet",
    "postalCity": "FOSNAVÅG",
    "postalCode": 6092
  },
  {
    "storeNo": 600,
    "name": "EP MERÅKER",
    "storeNoName": "600 EP MERÅKER",
    "latitude": 63.41685,
    "longitude": 11.73905,
    "county": "Trøndelag",
    "physicalStore": true,
    "municipality": "MERÅKER",
    "countryRegion": "Trøndelag",
    "postalCity": "MERÅKER",
    "postalCode": 7530
  },
  {
    "storeNo": 602,
    "name": "EP ETNE",
    "storeNoName": "602 EP ETNE",
    "latitude": 59.66371,
    "longitude": 5.93238,
    "county": "Vestland",
    "physicalStore": true,
    "municipality": "ETNE",
    "countryRegion": "Vestlandet",
    "postalCity": "ETNE",
    "postalCode": 5590
  },
  {
    "storeNo": 487,
    "name": "EP LYNGDAL",
    "storeNoName": "487 EP LYNGDAL",
    "latitude": 58.1379,
    "longitude": 7.07044,
    "county": "Agder",
    "physicalStore": true,
    "municipality": "LYNGDAL",
    "countryRegion": "Sørlandet",
    "postalCity": "LYNGDAL",
    "postalCode": 4580
  },
  {
    "storeNo": 290,
    "name": "EP LANGNES",
    "storeNoName": "290 EP LANGNES",
    "latitude": 69.67542,
    "longitude": 18.92858,
    "county": "Troms",
    "physicalStore": true,
    "municipality": "TROMSØ",
    "countryRegion": "Nord-Norge",
    "postalCity": "TROMSØ",
    "postalCode": 9015
  },
  {
    "storeNo": 607,
    "name": "EP TAU",
    "storeNoName": "607 EP TAU",
    "latitude": 59.06513,
    "longitude": 5.92179,
    "county": "Rogaland",
    "physicalStore": true,
    "municipality": "STRAND",
    "countryRegion": "Vestlandet",
    "postalCity": "TAU",
    "postalCode": 4120
  },
  {
    "storeNo": 810,
    "name": "E-HANDEL POSTNORD",
    "storeNoName": "810 E-HANDEL POSTNORD",
    "latitude": null,
    "longitude": null,
    "county": "Oslo",
    "physicalStore": false,
    "municipality": "OSLO",
    "countryRegion": "Østlandet",
    "postalCity": "OSLO",
    "postalCode": 668
  },
  {
    "storeNo": 611,
    "name": "EP LINDÅS",
    "storeNoName": "611 EP LINDÅS",
    "latitude": 60.73937,
    "longitude": 5.16066,
    "county": "Vestland",
    "physicalStore": true,
    "municipality": "ALVER",
    "countryRegion": "Vestlandet",
    "postalCity": "LINDÅS",
    "postalCode": 5955
  },
  {
    "storeNo": 615,
    "name": "EP LØREN CITY",
    "storeNoName": "615 EP LØREN CITY",
    "latitude": 59.93141,
    "longitude": 10.79069,
    "county": "Oslo",
    "physicalStore": true,
    "municipality": "OSLO",
    "countryRegion": "Østlandet",
    "postalCity": "OSLO",
    "postalCode": 585
  },
  {
    "storeNo": 811,
    "name": "E-HANDEL HELTHJEM",
    "storeNoName": "811 E-HANDEL HELTHJEM",
    "latitude": null,
    "longitude": null,
    "county": "Oslo",
    "physicalStore": false,
    "municipality": "OSLO",
    "countryRegion": "Østlandet",
    "postalCity": "OSLO",
    "postalCode": 180
  },
  {
    "storeNo": 444,
    "name": "EP KONGSBERG",
    "storeNoName": "444 EP KONGSBERG",
    "latitude": null,
    "longitude": null,
    "county": "Buskerud",
    "physicalStore": true,
    "municipality": "KONGSBERG",
    "countryRegion": "Østlandet",
    "postalCity": "SKOLLENBORG",
    "postalCode": 3619
  },
  {
    "storeNo": 612,
    "name": "EP AUSTEVOLL",
    "storeNoName": "612 EP AUSTEVOLL",
    "latitude": 60.09847,
    "longitude": 5.22488,
    "county": "Vestland",
    "physicalStore": true,
    "municipality": "AUSTEVOLL",
    "countryRegion": "Vestlandet",
    "postalCity": "STOREBØ",
    "postalCode": 5392
  },
  {
    "storeNo": 618,
    "name": "EP XHIBITION CITY",
    "storeNoName": "618 EP XHIBITION CITY",
    "latitude": 60.39298,
    "longitude": 5.32626,
    "county": "Vestland",
    "physicalStore": true,
    "municipality": "BERGEN",
    "countryRegion": "Vestlandet",
    "postalCity": "BERGEN",
    "postalCode": 5014
  },
  {
    "storeNo": 619,
    "name": "EP JÅTTÅ",
    "storeNoName": "619 EP JÅTTÅ",
    "latitude": 58.91426,
    "longitude": 5.71905,
    "county": "Rogaland",
    "physicalStore": true,
    "municipality": "STAVANGER",
    "countryRegion": "Vestlandet",
    "postalCity": "STAVANGER",
    "postalCode": 4020
  },
  {
    "storeNo": 616,
    "name": "EP SELBU",
    "storeNoName": "616 EP SELBU",
    "latitude": 63.22211,
    "longitude": 11.03491,
    "county": "Trøndelag",
    "physicalStore": true,
    "municipality": "SELBU",
    "countryRegion": "Trøndelag",
    "postalCity": "SELBU",
    "postalCode": 7580
  },
  {
    "storeNo": 621,
    "name": "EP FRØYA",
    "storeNoName": "621 EP FRØYA",
    "latitude": 63.7045,
    "longitude": 8.8189,
    "county": "Trøndelag",
    "physicalStore": true,
    "municipality": "FRØYA",
    "countryRegion": "Trøndelag",
    "postalCity": "HAMARVIK",
    "postalCode": 7263
  },
  {
    "storeNo": 626,
    "name": "EP LAGUNEN",
    "storeNoName": "626 EP LAGUNEN",
    "latitude": 60.29555,
    "longitude": 5.32952,
    "county": "Vestland",
    "physicalStore": true,
    "municipality": "BERGEN",
    "countryRegion": "Vestlandet",
    "postalCity": "RÅDAL",
    "postalCode": 5239
  },
  {
    "storeNo": 623,
    "name": "EP FJELLHAMAR",
    "storeNoName": "623 EP FJELLHAMAR",
    "latitude": 59.94107,
    "longitude": 10.97964,
    "county": "Akershus",
    "physicalStore": true,
    "municipality": "LØRENSKOG",
    "countryRegion": "Østlandet",
    "postalCity": "FJELLHAMAR",
    "postalCode": 1463
  },
  {
    "storeNo": 622,
    "name": "EP SETERMOEN",
    "storeNoName": "622 EP SETERMOEN",
    "latitude": 68.87701,
    "longitude": 18.35714,
    "county": "Troms",
    "physicalStore": true,
    "municipality": "BARDU",
    "countryRegion": "Nord-Norge",
    "postalCity": "BARDU",
    "postalCode": 9360
  },
  {
    "storeNo": 624,
    "name": "EP ENSJØ",
    "storeNoName": "624 EP ENSJØ",
    "latitude": 59.91456,
    "longitude": 10.78817,
    "county": "Oslo",
    "physicalStore": true,
    "municipality": "OSLO",
    "countryRegion": "Østlandet",
    "postalCity": "OSLO",
    "postalCode": 661
  },
  {
    "storeNo": 625,
    "name": "EP NITTEDAL",
    "storeNoName": "625 EP NITTEDAL",
    "latitude": 60.05084,
    "longitude": 10.8839,
    "county": "Akershus",
    "physicalStore": true,
    "municipality": "NITTEDAL",
    "countryRegion": "Østlandet",
    "postalCity": "NITTEDAL",
    "postalCode": 1482
  },
  {
    "storeNo": 628,
    "name": "EP FROLAND",
    "storeNoName": "628 EP FROLAND",
    "latitude": 58.49697,
    "longitude": 8.645,
    "county": "Agder",
    "physicalStore": true,
    "municipality": "FROLAND",
    "countryRegion": "Sørlandet",
    "postalCity": "FROLAND",
    "postalCode": 4820
  },
  {
    "storeNo": 629,
    "name": "EP GRENSEN CITY",
    "storeNoName": "629 EP GRENSEN CITY",
    "latitude": 59.91394,
    "longitude": 10.74319,
    "county": "Oslo",
    "physicalStore": true,
    "municipality": "OSLO",
    "countryRegion": "Østlandet",
    "postalCity": "OSLO",
    "postalCode": 159
  },
  {
    "storeNo": 998,
    "name": "EP 998 52POS",
    "storeNoName": "998 EP 998 52POS",
    "latitude": null,
    "longitude": null,
    "county": "",
    "physicalStore": true,
    "municipality": "",
    "countryRegion": "",
    "postalCity": "",
    "postalCode": null
  },
  {
    "storeNo": 630,
    "name": "EP DOMBÅS",
    "storeNoName": "630 EP DOMBÅS",
    "latitude": 62.07429,
    "longitude": 9.12724,
    "county": "Innlandet",
    "physicalStore": true,
    "municipality": "DOVRE",
    "countryRegion": "Østlandet",
    "postalCity": "DOMBÅS",
    "postalCode": 2660
  },
  {
    "storeNo": 431,
    "name": "EP MIDTUN",
    "storeNoName": "431 EP MIDTUN",
    "latitude": 60.32143,
    "longitude": 5.36485,
    "county": "Vestland",
    "physicalStore": true,
    "municipality": "BERGEN",
    "countryRegion": "Vestlandet",
    "postalCity": "NESTTUN",
    "postalCode": 5224
  },
  {
    "storeNo": 631,
    "name": "EP HAMAR",
    "storeNoName": "631 EP HAMAR",
    "latitude": 60.79949,
    "longitude": 11.11649,
    "county": "Innlandet",
    "physicalStore": true,
    "municipality": "HAMAR",
    "countryRegion": "Østlandet",
    "postalCity": "HAMAR",
    "postalCode": 2321
  },
  {
    "storeNo": 633,
    "name": "EP TRIADEN",
    "storeNoName": "633 EP TRIADEN",
    "latitude": 59.91861,
    "longitude": 10.95353,
    "county": "Akershus",
    "physicalStore": true,
    "municipality": "LØRENSKOG",
    "countryRegion": "Østlandet",
    "postalCity": "LØRENSKOG",
    "postalCode": 1461
  },
  {
    "storeNo": 634,
    "name": "EP CC DRAMMEN",
    "storeNoName": "634 EP CC DRAMMEN",
    "latitude": 59.74123,
    "longitude": 10.22278,
    "county": "Buskerud",
    "physicalStore": true,
    "municipality": "DRAMMEN",
    "countryRegion": "Østlandet",
    "postalCity": "DRAMMEN",
    "postalCode": 3012
  },
  {
    "storeNo": 635,
    "name": "EP ROGNAN",
    "storeNoName": "635 EP ROGNAN",
    "latitude": 67.10153,
    "longitude": 15.41147,
    "county": "Nordland",
    "physicalStore": true,
    "municipality": "SALTDAL",
    "countryRegion": "Nord-Norge",
    "postalCity": "ROGNAN",
    "postalCode": 8250
  },
  {
    "storeNo": 641,
    "name": "EP GULSKOGEN",
    "storeNoName": "641 EP GULSKOGEN",
    "latitude": 59.74253,
    "longitude": 10.15797,
    "county": "Buskerud",
    "physicalStore": true,
    "municipality": "DRAMMEN",
    "countryRegion": "Østlandet",
    "postalCity": "DRAMMEN",
    "postalCode": 3048
  },
  {
    "storeNo": 637,
    "name": "EP ASKER",
    "storeNoName": "637 EP ASKER",
    "latitude": null,
    "longitude": null,
    "county": "Akershus",
    "physicalStore": true,
    "municipality": "ASKER",
    "countryRegion": "Østlandet",
    "postalCity": "ASKER",
    "postalCode": 1386
  },
  {
    "storeNo": 639,
    "name": "EP GRIM",
    "storeNoName": "639 EP GRIM",
    "latitude": 58.14833,
    "longitude": 7.97886,
    "county": "Agder",
    "physicalStore": true,
    "municipality": "KRISTIANSAND",
    "countryRegion": "Sørlandet",
    "postalCity": "KRISTIANSAND S",
    "postalCode": 4616
  },
  {
    "storeNo": 638,
    "name": "EP FRITZØE BRYGGE",
    "storeNoName": "638 EP FRITZØE BRYGGE",
    "latitude": null,
    "longitude": null,
    "county": "Vestfold",
    "physicalStore": true,
    "municipality": "LARVIK",
    "countryRegion": "Østlandet",
    "postalCity": "LARVIK",
    "postalCode": 3264
  },
  {
    "storeNo": 644,
    "name": "EP BEKKESTUA",
    "storeNoName": "644 EP BEKKESTUA",
    "latitude": null,
    "longitude": null,
    "county": "Akershus",
    "physicalStore": true,
    "municipality": "BÆRUM",
    "countryRegion": "Østlandet",
    "postalCity": "BEKKESTUA",
    "postalCode": 1357
  },
  {
    "storeNo": 646,
    "name": "EP HOLMLIA CITY",
    "storeNoName": "646 EP HOLMLIA CITY",
    "latitude": null,
    "longitude": null,
    "county": "Oslo",
    "physicalStore": true,
    "municipality": "OSLO",
    "countryRegion": "Østlandet",
    "postalCity": "OSLO",
    "postalCode": 1255
  },
  {
    "storeNo": 76,
    "name": "EP KRAGERØ",
    "storeNoName": "076 EP KRAGERØ",
    "latitude": 58.87311,
    "longitude": 9.36891,
    "county": "Telemark",
    "physicalStore": true,
    "municipality": "KRAGERØ",
    "countryRegion": "Østlandet",
    "postalCity": "KRAGERØ",
    "postalCode": 3772
  },
  {
    "storeNo": 77,
    "name": "EP NOTODDEN",
    "storeNoName": "077 EP NOTODDEN",
    "latitude": 59.5661,
    "longitude": 9.21626,
    "county": "Telemark",
    "physicalStore": true,
    "municipality": "NOTODDEN",
    "countryRegion": "Østlandet",
    "postalCity": "NOTODDEN",
    "postalCode": 3676
  },
  {
    "storeNo": 79,
    "name": "EP SANDNESSJØEN",
    "storeNoName": "079 EP SANDNESSJØEN",
    "latitude": 66.01729,
    "longitude": 12.64243,
    "county": "Nordland",
    "physicalStore": true,
    "municipality": "ALSTAHAUG",
    "countryRegion": "Nord-Norge",
    "postalCity": "SANDNESSJØEN",
    "postalCode": 8800
  },
  {
    "storeNo": 416,
    "name": "EP STAKKEVOLL",
    "storeNoName": "416 EP STAKKEVOLL",
    "latitude": 69.66598,
    "longitude": 18.9708,
    "county": "Troms",
    "physicalStore": true,
    "municipality": "TROMSØ",
    "countryRegion": "Nord-Norge",
    "postalCity": "TROMSØ",
    "postalCode": 9010
  },
  {
    "storeNo": 579,
    "name": "EP FØRDE",
    "storeNoName": "579 EP FØRDE",
    "latitude": 61.45671,
    "longitude": 5.84409,
    "county": "Vestland",
    "physicalStore": true,
    "municipality": "SUNNFJORD",
    "countryRegion": "Vestlandet",
    "postalCity": "FØRDE",
    "postalCode": 6800
  },
  {
    "storeNo": 605,
    "name": "EP SORTLAND",
    "storeNoName": "605 EP SORTLAND",
    "latitude": 68.7199,
    "longitude": 15.40116,
    "county": "Nordland",
    "physicalStore": true,
    "municipality": "SORTLAND",
    "countryRegion": "Nord-Norge",
    "postalCity": "SORTLAND",
    "postalCode": 8400
  },
  {
    "storeNo": 89,
    "name": "EP KNARVIK",
    "storeNoName": "089 EP KNARVIK",
    "latitude": 60.5481,
    "longitude": 5.28661,
    "county": "Vestland",
    "physicalStore": true,
    "municipality": "ALVER",
    "countryRegion": "Vestlandet",
    "postalCity": "ISDALSTØ",
    "postalCode": 5914
  },
  {
    "storeNo": 375,
    "name": "EP NAMSOS",
    "storeNoName": "375 EP NAMSOS",
    "latitude": 64.47467,
    "longitude": 11.50992,
    "county": "Trøndelag",
    "physicalStore": true,
    "municipality": "NAMSOS",
    "countryRegion": "Trøndelag",
    "postalCity": "NAMSOS",
    "postalCode": 7800
  },
  {
    "storeNo": 439,
    "name": "EP BØ",
    "storeNoName": "439 EP BØ",
    "latitude": 59.41535,
    "longitude": 9.05834,
    "county": "Telemark",
    "physicalStore": true,
    "municipality": "MIDT-TELEMARK",
    "countryRegion": "Østlandet",
    "postalCity": "BØ I TELEMARK",
    "postalCode": 3802
  },
  {
    "storeNo": 429,
    "name": "EP FYLLINGSDALEN",
    "storeNoName": "429 EP FYLLINGSDALEN",
    "latitude": 60.3509,
    "longitude": 5.27783,
    "county": "Vestland",
    "physicalStore": true,
    "municipality": "BERGEN",
    "countryRegion": "Vestlandet",
    "postalCity": "FYLLINGSDALEN",
    "postalCode": 5147
  },
  {
    "storeNo": 440,
    "name": "EP SANDEFJORD",
    "storeNoName": "440 EP SANDEFJORD",
    "latitude": 59.13971,
    "longitude": 10.23865,
    "county": "Vestfold",
    "physicalStore": true,
    "municipality": "SANDEFJORD",
    "countryRegion": "Østlandet",
    "postalCity": "SANDEFJORD",
    "postalCode": 3229
  },
  {
    "storeNo": 441,
    "name": "EP NANSET",
    "storeNoName": "441 EP NANSET",
    "latitude": 59.08085,
    "longitude": 10.0626,
    "county": "Vestfold",
    "physicalStore": true,
    "municipality": "LARVIK",
    "countryRegion": "Østlandet",
    "postalCity": "LARVIK",
    "postalCode": 3255
  },
  {
    "storeNo": 388,
    "name": "EP ASKIM",
    "storeNoName": "388 EP ASKIM",
    "latitude": 59.58522,
    "longitude": 11.16639,
    "county": "Østfold",
    "physicalStore": true,
    "municipality": "INDRE ØSTFOLD",
    "countryRegion": "Østlandet",
    "postalCity": "ASKIM",
    "postalCode": 1830
  },
  {
    "storeNo": 20,
    "name": "EP LEKNES",
    "storeNoName": "020 EP LEKNES",
    "latitude": 68.14733,
    "longitude": 13.60656,
    "county": "Nordland",
    "physicalStore": true,
    "municipality": "VESTVÅGØY",
    "countryRegion": "Nord-Norge",
    "postalCity": "LEKNES",
    "postalCode": 8370
  },
  {
    "storeNo": 117,
    "name": "EP EIKER",
    "storeNoName": "117 EP EIKER",
    "latitude": 59.76127,
    "longitude": 9.90383,
    "county": "Buskerud",
    "physicalStore": true,
    "municipality": "ØVRE EIKER",
    "countryRegion": "Østlandet",
    "postalCity": "HOKKSUND",
    "postalCode": 3300
  },
  {
    "storeNo": 598,
    "name": "EP STORD",
    "storeNoName": "598 EP STORD",
    "latitude": 59.76431,
    "longitude": 5.46072,
    "county": "Vestland",
    "physicalStore": true,
    "municipality": "STORD",
    "countryRegion": "Vestlandet",
    "postalCity": "STORD",
    "postalCode": 5416
  },
  {
    "storeNo": 442,
    "name": "EP PORSGRUNN",
    "storeNoName": "442 EP PORSGRUNN",
    "latitude": 59.14058,
    "longitude": 9.63716,
    "county": "Telemark",
    "physicalStore": true,
    "municipality": "PORSGRUNN",
    "countryRegion": "Østlandet",
    "postalCity": "PORSGRUNN",
    "postalCode": 3920
  },
  {
    "storeNo": 498,
    "name": "EP ØRSTA",
    "storeNoName": "498 EP ØRSTA",
    "latitude": 62.2025,
    "longitude": 6.11815,
    "county": "Møre og Romsdal",
    "physicalStore": true,
    "municipality": "ØRSTA",
    "countryRegion": "Vestlandet",
    "postalCity": "ØRSTA",
    "postalCode": 6150
  },
  {
    "storeNo": 339,
    "name": "EP EIDSVÅG",
    "storeNoName": "339 EP EIDSVÅG",
    "latitude": 62.77611,
    "longitude": 8.0628,
    "county": "Møre og Romsdal",
    "physicalStore": true,
    "municipality": "MOLDE",
    "countryRegion": "Vestlandet",
    "postalCity": "EIDSVÅG I ROMSDAL",
    "postalCode": 6460
  },
  {
    "storeNo": 345,
    "name": "EP BRYNE",
    "storeNoName": "345 EP BRYNE",
    "latitude": 58.735,
    "longitude": 5.65268,
    "county": "Rogaland",
    "physicalStore": true,
    "municipality": "TIME",
    "countryRegion": "Vestlandet",
    "postalCity": "BRYNE",
    "postalCode": 4340
  },
  {
    "storeNo": 435,
    "name": "EP MOSJØEN",
    "storeNoName": "435 EP MOSJØEN",
    "latitude": 65.84149,
    "longitude": 13.19153,
    "county": "Nordland",
    "physicalStore": true,
    "municipality": "VEFSN",
    "countryRegion": "Nord-Norge",
    "postalCity": "MOSJØEN",
    "postalCode": 8663
  },
  {
    "storeNo": 135,
    "name": "EP ODDA",
    "storeNoName": "135 EP ODDA",
    "latitude": 60.06968,
    "longitude": 6.55186,
    "county": "Vestland",
    "physicalStore": true,
    "municipality": "ULLENSVANG",
    "countryRegion": "Vestlandet",
    "postalCity": "ODDA",
    "postalCode": 5750
  },
  {
    "storeNo": 449,
    "name": "EP SARTOR STORSENTER",
    "storeNoName": "449 EP SARTOR STORSENTER",
    "latitude": 60.3585,
    "longitude": 5.12407,
    "county": "Vestland",
    "physicalStore": true,
    "municipality": "ØYGARDEN",
    "countryRegion": "Vestlandet",
    "postalCity": "STRAUME",
    "postalCode": 5353
  },
  {
    "storeNo": 620,
    "name": "EP LENA",
    "storeNoName": "620 EP LENA",
    "latitude": 60.67529,
    "longitude": 10.81152,
    "county": "Innlandet",
    "physicalStore": true,
    "municipality": "ØSTRE TOTEN",
    "countryRegion": "Østlandet",
    "postalCity": "LENA",
    "postalCode": 2850
  },
  {
    "storeNo": 395,
    "name": "EP HORTEN",
    "storeNoName": "395 EP HORTEN",
    "latitude": 59.40765,
    "longitude": 10.4845,
    "county": "Vestfold",
    "physicalStore": true,
    "municipality": "HORTEN",
    "countryRegion": "Østlandet",
    "postalCity": "HORTEN",
    "postalCode": 3187
  },
  {
    "storeNo": 438,
    "name": "EP LIERTOPPEN",
    "storeNoName": "438 EP LIERTOPPEN",
    "latitude": 59.81129,
    "longitude": 10.30585,
    "county": "Buskerud",
    "physicalStore": true,
    "municipality": "LIER",
    "countryRegion": "Østlandet",
    "postalCity": "LIERSKOGEN",
    "postalCode": 3421
  },
  {
    "storeNo": 412,
    "name": "EP SOGNDAL",
    "storeNoName": "412 EP SOGNDAL",
    "latitude": 61.19165,
    "longitude": 7.22033,
    "county": "Vestland",
    "physicalStore": true,
    "municipality": "SOGNDAL",
    "countryRegion": "Vestlandet",
    "postalCity": "KAUPANGER",
    "postalCode": 6854
  },
  {
    "storeNo": 589,
    "name": "EP HARSTAD",
    "storeNoName": "589 EP HARSTAD",
    "latitude": 68.79191,
    "longitude": 16.54183,
    "county": "Troms",
    "physicalStore": true,
    "municipality": "HARSTAD",
    "countryRegion": "Nord-Norge",
    "postalCity": "HARSTAD",
    "postalCode": 9406
  },
  {
    "storeNo": 443,
    "name": "EP LANGRØNNINGEN",
    "storeNoName": "443 EP LANGRØNNINGEN",
    "latitude": 58.97256,
    "longitude": 9.52422,
    "county": "Telemark",
    "physicalStore": true,
    "municipality": "BAMBLE",
    "countryRegion": "Østlandet",
    "postalCity": "STATHELLE",
    "postalCode": 3967
  },
  {
    "storeNo": 430,
    "name": "EP FINNSNES",
    "storeNoName": "430 EP FINNSNES",
    "latitude": 69.2294,
    "longitude": 17.98739,
    "county": "Troms",
    "physicalStore": true,
    "municipality": "SENJA",
    "countryRegion": "Nord-Norge",
    "postalCity": "FINNSNES",
    "postalCode": 9300
  },
  {
    "storeNo": 397,
    "name": "EP OPPDAL",
    "storeNoName": "397 EP OPPDAL",
    "latitude": 62.59396,
    "longitude": 9.69372,
    "county": "Trøndelag",
    "physicalStore": true,
    "municipality": "OPPDAL",
    "countryRegion": "Trøndelag",
    "postalCity": "OPPDAL",
    "postalCode": 7340
  },
  {
    "storeNo": 499,
    "name": "EP ULSTEINVIK",
    "storeNoName": "499 EP ULSTEINVIK",
    "latitude": 62.33976,
    "longitude": 5.85497,
    "county": "Møre og Romsdal",
    "physicalStore": true,
    "municipality": "ULSTEIN",
    "countryRegion": "Vestlandet",
    "postalCity": "ULSTEINVIK",
    "postalCode": 6065
  },
  {
    "storeNo": 613,
    "name": "EP VÅGSBYGD",
    "storeNoName": "613 EP VÅGSBYGD",
    "latitude": 58.12493,
    "longitude": 7.96338,
    "county": "Agder",
    "physicalStore": true,
    "municipality": "KRISTIANSAND",
    "countryRegion": "Sørlandet",
    "postalCity": "KRISTIANSAND S",
    "postalCode": 4621
  },
  {
    "storeNo": 642,
    "name": "EP JØRPELAND/STRAND",
    "storeNoName": "642 EP JØRPELAND/STRAND",
    "latitude": 59.02063,
    "longitude": 6.03994,
    "county": "Rogaland",
    "physicalStore": true,
    "municipality": "STRAND",
    "countryRegion": "Vestlandet",
    "postalCity": "JØRPELAND",
    "postalCode": 4100
  },
  {
    "storeNo": 470,
    "name": "EP BØMLO",
    "storeNoName": "470 EP BØMLO",
    "latitude": 59.79601,
    "longitude": 5.18529,
    "county": "Vestland",
    "physicalStore": true,
    "municipality": "BØMLO",
    "countryRegion": "Vestlandet",
    "postalCity": "BREMNES",
    "postalCode": 5430
  },
  {
    "storeNo": 209,
    "name": "EP FREDRIKSTAD",
    "storeNoName": "209 EP FREDRIKSTAD",
    "latitude": 59.24484,
    "longitude": 10.98454,
    "county": "Østfold",
    "physicalStore": true,
    "municipality": "FREDRIKSTAD",
    "countryRegion": "Østlandet",
    "postalCity": "ROLVSØY",
    "postalCode": 1661
  },
  {
    "storeNo": 636,
    "name": "EP OTTA",
    "storeNoName": "636 EP OTTA",
    "latitude": 61.77119,
    "longitude": 9.54336,
    "county": "Innlandet",
    "physicalStore": true,
    "municipality": "SEL",
    "countryRegion": "Østlandet",
    "postalCity": "OTTA",
    "postalCode": 2670
  },
  {
    "storeNo": 384,
    "name": "EP NÆRBØ",
    "storeNoName": "384 EP NÆRBØ",
    "latitude": 58.66486,
    "longitude": 5.63669,
    "county": "Rogaland",
    "physicalStore": true,
    "municipality": "HÅ",
    "countryRegion": "Vestlandet",
    "postalCity": "NÆRBØ",
    "postalCode": 4365
  },
  {
    "storeNo": 419,
    "name": "EP SVOLVÆR",
    "storeNoName": "419 EP SVOLVÆR",
    "latitude": 68.23618,
    "longitude": 14.56416,
    "county": "Nordland",
    "physicalStore": true,
    "municipality": "VÅGAN",
    "countryRegion": "Nord-Norge",
    "postalCity": "SVOLVÆR",
    "postalCode": 8300
  },
  {
    "storeNo": 413,
    "name": "EP MYSEN",
    "storeNoName": "413 EP MYSEN",
    "latitude": 59.55181,
    "longitude": 11.34179,
    "county": "Østfold",
    "physicalStore": true,
    "municipality": "INDRE ØSTFOLD",
    "countryRegion": "Østlandet",
    "postalCity": "MYSEN",
    "postalCode": 1850
  },
  {
    "storeNo": 610,
    "name": "EP SØRKJOSEN",
    "storeNoName": "610 EP SØRKJOSEN",
    "latitude": 69.78637,
    "longitude": 20.95096,
    "county": "Troms",
    "physicalStore": true,
    "municipality": "NORDREISA",
    "countryRegion": "Nord-Norge",
    "postalCity": "SØRKJOSEN",
    "postalCode": 9152
  },
  {
    "storeNo": 216,
    "name": "EP RANDABERG",
    "storeNoName": "216 EP RANDABERG",
    "latitude": 58.99532,
    "longitude": 5.63761,
    "county": "Rogaland",
    "physicalStore": true,
    "municipality": "RANDABERG",
    "countryRegion": "Vestlandet",
    "postalCity": "RANDABERG",
    "postalCode": 4070
  },
  {
    "storeNo": 436,
    "name": "EP LILLESAND",
    "storeNoName": "436 EP LILLESAND",
    "latitude": 58.26122,
    "longitude": 8.39377,
    "county": "Agder",
    "physicalStore": true,
    "municipality": "LILLESAND",
    "countryRegion": "Sørlandet",
    "postalCity": "LILLESAND",
    "postalCode": 4790
  },
  {
    "storeNo": 595,
    "name": "EP HERKULES",
    "storeNoName": "595 EP HERKULES",
    "latitude": 59.1951,
    "longitude": 9.59715,
    "county": "Telemark",
    "physicalStore": true,
    "municipality": "SKIEN",
    "countryRegion": "Østlandet",
    "postalCity": "SKIEN",
    "postalCode": 3730
  },
  {
    "storeNo": 221,
    "name": "EP STØPERIGATEN STAVANGER",
    "storeNoName": "221 EP STØPERIGATEN STAVANGER",
    "latitude": 58.97004,
    "longitude": 5.75388,
    "county": "Rogaland",
    "physicalStore": true,
    "municipality": "STAVANGER",
    "countryRegion": "Vestlandet",
    "postalCity": "STAVANGER",
    "postalCode": 4014
  },
  {
    "storeNo": 223,
    "name": "EP SANDNES",
    "storeNoName": "223 EP SANDNES",
    "latitude": 58.84829,
    "longitude": 5.73966,
    "county": "Rogaland",
    "physicalStore": true,
    "municipality": "SANDNES",
    "countryRegion": "Vestlandet",
    "postalCity": "SANDNES",
    "postalCode": 4306
  },
  {
    "storeNo": 224,
    "name": "EP LIERSTRANDA",
    "storeNoName": "224 EP LIERSTRANDA",
    "latitude": 59.74989,
    "longitude": 10.24926,
    "county": "Buskerud",
    "physicalStore": true,
    "municipality": "LIER",
    "countryRegion": "Østlandet",
    "postalCity": "LIERSTRANDA",
    "postalCode": 3414
  },
  {
    "storeNo": 225,
    "name": "EP ÅSSIDEN PLUSS",
    "storeNoName": "225 EP ÅSSIDEN PLUSS",
    "latitude": 59.75335,
    "longitude": 10.13038,
    "county": "Buskerud",
    "physicalStore": true,
    "municipality": "DRAMMEN",
    "countryRegion": "Østlandet",
    "postalCity": "DRAMMEN",
    "postalCode": 3027
  },
  {
    "storeNo": 226,
    "name": "EP VIKERSUND",
    "storeNoName": "226 EP VIKERSUND",
    "latitude": 59.96525,
    "longitude": 9.99348,
    "county": "Buskerud",
    "physicalStore": true,
    "municipality": "MODUM",
    "countryRegion": "Østlandet",
    "postalCity": "VIKERSUND",
    "postalCode": 3370
  },
  {
    "storeNo": 227,
    "name": "EP VESTBY",
    "storeNoName": "227 EP VESTBY",
    "latitude": 59.60766,
    "longitude": 10.74308,
    "county": "Akershus",
    "physicalStore": true,
    "municipality": "VESTBY",
    "countryRegion": "Østlandet",
    "postalCity": "VESTBY",
    "postalCode": 1540
  },
  {
    "storeNo": 228,
    "name": "EP LILLEHAMMER STRANDPARKEN",
    "storeNoName": "228 EP LILLEHAMMER STRANDPARKEN",
    "latitude": 61.11459,
    "longitude": 10.45268,
    "county": "Innlandet",
    "physicalStore": true,
    "municipality": "LILLEHAMMER",
    "countryRegion": "Østlandet",
    "postalCity": "LILLEHAMMER",
    "postalCode": 2609
  },
  {
    "storeNo": 229,
    "name": "EP BRUMUNDDAL",
    "storeNoName": "229 EP BRUMUNDDAL",
    "latitude": 60.88548,
    "longitude": 10.94124,
    "county": "Innlandet",
    "physicalStore": true,
    "municipality": "RINGSAKER",
    "countryRegion": "Østlandet",
    "postalCity": "BRUMUNDDAL",
    "postalCode": 2380
  },
  {
    "storeNo": 645,
    "name": "EP MANDAL",
    "storeNoName": "645 EP MANDAL",
    "latitude": 58.02436,
    "longitude": 7.46635,
    "county": "Agder",
    "physicalStore": true,
    "municipality": "LINDESNES",
    "countryRegion": "Sørlandet",
    "postalCity": "MANDAL",
    "postalCode": 4515
  },
  {
    "storeNo": 230,
    "name": "EP FLISA",
    "storeNoName": "230 EP FLISA",
    "latitude": 60.61307,
    "longitude": 12.00806,
    "county": "Innlandet",
    "physicalStore": true,
    "municipality": "ÅSNES",
    "countryRegion": "Østlandet",
    "postalCity": "FLISA",
    "postalCode": 2270
  },
  {
    "storeNo": 231,
    "name": "EP ÅRNES",
    "storeNoName": "231 EP ÅRNES",
    "latitude": 60.11865,
    "longitude": 11.46198,
    "county": "Akershus",
    "physicalStore": true,
    "municipality": "NES",
    "countryRegion": "Østlandet",
    "postalCity": "ÅRNES",
    "postalCode": 2151
  },
  {
    "storeNo": 233,
    "name": "EP RAGLAMYR PLUSS",
    "storeNoName": "233 EP RAGLAMYR PLUSS",
    "latitude": 59.3974,
    "longitude": 5.33471,
    "county": "Rogaland",
    "physicalStore": true,
    "municipality": "HAUGESUND",
    "countryRegion": "Vestlandet",
    "postalCity": "HAUGESUND",
    "postalCode": 5536
  },
  {
    "storeNo": 236,
    "name": "EP VOLLEBEKK",
    "storeNoName": "236 EP VOLLEBEKK",
    "latitude": 59.93647,
    "longitude": 10.82697,
    "county": "Oslo",
    "physicalStore": true,
    "municipality": "OSLO",
    "countryRegion": "Østlandet",
    "postalCity": "OSLO",
    "postalCode": 598
  },
  {
    "storeNo": 237,
    "name": "EP PRINSDAL",
    "storeNoName": "237 EP PRINSDAL",
    "latitude": 59.83328,
    "longitude": 10.80876,
    "county": "Akershus",
    "physicalStore": true,
    "municipality": "NORDRE FOLLO",
    "countryRegion": "Østlandet",
    "postalCity": "KOLBOTN",
    "postalCode": 1410
  },
  {
    "storeNo": 238,
    "name": "EP BRYN",
    "storeNoName": "238 EP BRYN",
    "latitude": 59.91206,
    "longitude": 10.82484,
    "county": "Oslo",
    "physicalStore": true,
    "municipality": "OSLO",
    "countryRegion": "Østlandet",
    "postalCity": "OSLO",
    "postalCode": 666
  },
  {
    "storeNo": 239,
    "name": "EP HALDEN",
    "storeNoName": "239 EP HALDEN",
    "latitude": 59.1216,
    "longitude": 11.3834,
    "county": "Østfold",
    "physicalStore": true,
    "municipality": "HALDEN",
    "countryRegion": "Østlandet",
    "postalCity": "HALDEN",
    "postalCode": 1771
  },
  {
    "storeNo": 242,
    "name": "EP MOELV",
    "storeNoName": "242 EP MOELV",
    "latitude": 60.92999,
    "longitude": 10.7008,
    "county": "Innlandet",
    "physicalStore": true,
    "municipality": "RINGSAKER",
    "countryRegion": "Østlandet",
    "postalCity": "MOELV",
    "postalCode": 2390
  },
  {
    "storeNo": 434,
    "name": "EP MO I RANA",
    "storeNoName": "434 EP MO I RANA",
    "latitude": 66.30412,
    "longitude": 14.13258,
    "county": "Nordland",
    "physicalStore": true,
    "municipality": "RANA",
    "countryRegion": "Nord-Norge",
    "postalCity": "MO I RANA",
    "postalCode": 8624
  },
  {
    "storeNo": 243,
    "name": "EP KONGSVINGER",
    "storeNoName": "243 EP KONGSVINGER",
    "latitude": 60.19289,
    "longitude": 12.00053,
    "county": "Innlandet",
    "physicalStore": true,
    "municipality": "KONGSVINGER",
    "countryRegion": "Østlandet",
    "postalCity": "KONGSVINGER",
    "postalCode": 2212
  },
  {
    "storeNo": 244,
    "name": "EP HØNEFOSS",
    "storeNoName": "244 EP HØNEFOSS",
    "latitude": 60.1459,
    "longitude": 10.25245,
    "county": "Buskerud",
    "physicalStore": true,
    "municipality": "RINGERIKE",
    "countryRegion": "Østlandet",
    "postalCity": "HØNEFOSS",
    "postalCode": 3511
  },
  {
    "storeNo": 245,
    "name": "EP RAKKESTAD",
    "storeNoName": "245 EP RAKKESTAD",
    "latitude": 59.42608,
    "longitude": 11.34239,
    "county": "Østfold",
    "physicalStore": true,
    "municipality": "RAKKESTAD",
    "countryRegion": "Østlandet",
    "postalCity": "RAKKESTAD",
    "postalCode": 1890
  },
  {
    "storeNo": 246,
    "name": "EP EIDSVOLL",
    "storeNoName": "246 EP EIDSVOLL",
    "latitude": 60.33131,
    "longitude": 11.26554,
    "county": "Akershus",
    "physicalStore": true,
    "municipality": "EIDSVOLL",
    "countryRegion": "Østlandet",
    "postalCity": "EIDSVOLL",
    "postalCode": 2080
  },
  {
    "storeNo": 247,
    "name": "EP STANGE",
    "storeNoName": "247 EP STANGE",
    "latitude": 60.72157,
    "longitude": 11.19727,
    "county": "Innlandet",
    "physicalStore": true,
    "municipality": "STANGE",
    "countryRegion": "Østlandet",
    "postalCity": "STANGE",
    "postalCode": 2335
  },
  {
    "storeNo": 248,
    "name": "EP SLEMMESTAD",
    "storeNoName": "248 EP SLEMMESTAD",
    "latitude": 59.78577,
    "longitude": 10.4893,
    "county": "Akershus",
    "physicalStore": true,
    "municipality": "ASKER",
    "countryRegion": "Østlandet",
    "postalCity": "SLEMMESTAD",
    "postalCode": 3470
  },
  {
    "storeNo": 249,
    "name": "EP ELVERUM",
    "storeNoName": "249 EP ELVERUM",
    "latitude": 60.87635,
    "longitude": 11.5482,
    "county": "Innlandet",
    "physicalStore": true,
    "municipality": "ELVERUM",
    "countryRegion": "Østlandet",
    "postalCity": "ELVERUM",
    "postalCode": 2413
  },
  {
    "storeNo": 250,
    "name": "EP SARPSBORG",
    "storeNoName": "250 EP SARPSBORG",
    "latitude": 59.28679,
    "longitude": 11.08066,
    "county": "Østfold",
    "physicalStore": true,
    "municipality": "SARPSBORG",
    "countryRegion": "Østlandet",
    "postalCity": "SARPSBORG",
    "postalCode": 1711
  },
  {
    "storeNo": 252,
    "name": "EP KLØFTA",
    "storeNoName": "252 EP KLØFTA",
    "latitude": 60.07258,
    "longitude": 11.13591,
    "county": "Akershus",
    "physicalStore": true,
    "municipality": "ULLENSAKER",
    "countryRegion": "Østlandet",
    "postalCity": "KLØFTA",
    "postalCode": 2040
  },
  {
    "storeNo": 253,
    "name": "EP SØRUMSAND",
    "storeNoName": "253 EP SØRUMSAND",
    "latitude": 59.98665,
    "longitude": 11.24252,
    "county": "Akershus",
    "physicalStore": true,
    "municipality": "LILLESTRØM",
    "countryRegion": "Østlandet",
    "postalCity": "SØRUMSAND",
    "postalCode": 1920
  },
  {
    "storeNo": 594,
    "name": "EP FALKUM",
    "storeNoName": "594 EP FALKUM",
    "latitude": 59.21306,
    "longitude": 9.58649,
    "county": "Telemark",
    "physicalStore": true,
    "municipality": "SKIEN",
    "countryRegion": "Østlandet",
    "postalCity": "SKIEN",
    "postalCode": 3723
  },
  {
    "storeNo": 254,
    "name": "EP LAMBERTSETER",
    "storeNoName": "254 EP LAMBERTSETER",
    "latitude": 59.87489,
    "longitude": 10.80969,
    "county": "Oslo",
    "physicalStore": true,
    "municipality": "OSLO",
    "countryRegion": "Østlandet",
    "postalCity": "OSLO",
    "postalCode": 1153
  },
  {
    "storeNo": 255,
    "name": "EP LINDEBERG",
    "storeNoName": "255 EP LINDEBERG",
    "latitude": 59.93563,
    "longitude": 10.88696,
    "county": "Oslo",
    "physicalStore": true,
    "municipality": "OSLO",
    "countryRegion": "Østlandet",
    "postalCity": "OSLO",
    "postalCode": 1068
  },
  {
    "storeNo": 334,
    "name": "EP NØTTERØY",
    "storeNoName": "334 EP NØTTERØY",
    "latitude": 59.26389,
    "longitude": 10.39329,
    "county": "Vestfold",
    "physicalStore": true,
    "municipality": "FÆRDER",
    "countryRegion": "Østlandet",
    "postalCity": "NØTTERØY",
    "postalCode": 3128
  },
  {
    "storeNo": 396,
    "name": "EP ELNESVÅGEN",
    "storeNoName": "396 EP ELNESVÅGEN",
    "latitude": 62.85382,
    "longitude": 7.16111,
    "county": "Møre og Romsdal",
    "physicalStore": true,
    "municipality": "HUSTADVIKA",
    "countryRegion": "Vestlandet",
    "postalCity": "ELNESVÅGEN",
    "postalCode": 6440
  },
  {
    "storeNo": 262,
    "name": "EP HAUGENSTUA",
    "storeNoName": "262 EP HAUGENSTUA",
    "latitude": 59.95272,
    "longitude": 10.90826,
    "county": "Oslo",
    "physicalStore": true,
    "municipality": "OSLO",
    "countryRegion": "Østlandet",
    "postalCity": "OSLO",
    "postalCode": 977
  },
  {
    "storeNo": 415,
    "name": "EP GOL",
    "storeNoName": "415 EP GOL",
    "latitude": 60.70505,
    "longitude": 8.95334,
    "county": "Buskerud",
    "physicalStore": true,
    "municipality": "GOL",
    "countryRegion": "Østlandet",
    "postalCity": "GOL",
    "postalCode": 3550
  },
  {
    "storeNo": 264,
    "name": "EP RÅHOLT",
    "storeNoName": "264 EP RÅHOLT",
    "latitude": 60.28593,
    "longitude": 11.17086,
    "county": "Akershus",
    "physicalStore": true,
    "municipality": "EIDSVOLL",
    "countryRegion": "Østlandet",
    "postalCity": "RÅHOLT",
    "postalCode": 2070
  },
  {
    "storeNo": 267,
    "name": "EP SOLA",
    "storeNoName": "267 EP SOLA",
    "latitude": 58.88427,
    "longitude": 5.6527,
    "county": "Rogaland",
    "physicalStore": true,
    "municipality": "SOLA",
    "countryRegion": "Vestlandet",
    "postalCity": "SOLA",
    "postalCode": 4050
  },
  {
    "storeNo": 627,
    "name": "EP LEIRA",
    "storeNoName": "627 EP LEIRA",
    "latitude": 60.97112,
    "longitude": 9.28952,
    "county": "Innlandet",
    "physicalStore": true,
    "municipality": "NORD-AURDAL",
    "countryRegion": "Østlandet",
    "postalCity": "LEIRA I VALDRES",
    "postalCode": 2920
  },
  {
    "storeNo": 587,
    "name": "EP RAUFOSS",
    "storeNoName": "587 EP RAUFOSS",
    "latitude": 60.72538,
    "longitude": 10.61266,
    "county": "Innlandet",
    "physicalStore": true,
    "municipality": "VESTRE TOTEN",
    "countryRegion": "Østlandet",
    "postalCity": "RAUFOSS",
    "postalCode": 2830
  },
  {
    "storeNo": 271,
    "name": "EP VESTKANTEN",
    "storeNoName": "271 EP VESTKANTEN",
    "latitude": 60.36311,
    "longitude": 5.23496,
    "county": "Vestland",
    "physicalStore": true,
    "municipality": "BERGEN",
    "countryRegion": "Vestlandet",
    "postalCity": "LODDEFJORD",
    "postalCode": 5171
  },
  {
    "storeNo": 272,
    "name": "EP ÅS",
    "storeNoName": "272 EP ÅS",
    "latitude": 59.66468,
    "longitude": 10.79082,
    "county": "Akershus",
    "physicalStore": true,
    "municipality": "ÅS",
    "countryRegion": "Østlandet",
    "postalCity": "ÅS",
    "postalCode": 1430
  },
  {
    "storeNo": 273,
    "name": "EP TRYSIL",
    "storeNoName": "273 EP TRYSIL",
    "latitude": 61.29977,
    "longitude": 12.26551,
    "county": "Innlandet",
    "physicalStore": true,
    "municipality": "TRYSIL",
    "countryRegion": "Østlandet",
    "postalCity": "TRYSIL",
    "postalCode": 2420
  },
  {
    "storeNo": 279,
    "name": "EP ISEVEIEN",
    "storeNoName": "279 EP ISEVEIEN",
    "latitude": 59.26897,
    "longitude": 11.15912,
    "county": "Østfold",
    "physicalStore": true,
    "municipality": "SARPSBORG",
    "countryRegion": "Østlandet",
    "postalCity": "BORGENHAUGEN",
    "postalCode": 1738
  },
  {
    "storeNo": 383,
    "name": "EP LILLESTRØM",
    "storeNoName": "383 EP LILLESTRØM",
    "latitude": 59.94802,
    "longitude": 11.07249,
    "county": "Akershus",
    "physicalStore": true,
    "municipality": "LILLESTRØM",
    "countryRegion": "Østlandet",
    "postalCity": "LILLESTRØM",
    "postalCode": 2004
  },
  {
    "storeNo": 393,
    "name": "EP SEM",
    "storeNoName": "393 EP SEM",
    "latitude": 59.28271,
    "longitude": 10.33154,
    "county": "Vestfold",
    "physicalStore": true,
    "municipality": "TØNSBERG",
    "countryRegion": "Østlandet",
    "postalCity": "SEM",
    "postalCode": 3170
  },
  {
    "storeNo": 801,
    "name": "MARIEBERG",
    "storeNoName": "801 MARIEBERG",
    "latitude": null,
    "longitude": null,
    "county": "",
    "physicalStore": true,
    "municipality": "",
    "countryRegion": "",
    "postalCity": "",
    "postalCode": null
  },
  {
    "storeNo": 802,
    "name": "ULRICHEHAMN",
    "storeNoName": "802 ULRICHEHAMN",
    "latitude": null,
    "longitude": null,
    "county": "Vestland",
    "physicalStore": true,
    "municipality": "ØYGARDEN",
    "countryRegion": "Vestlandet",
    "postalCity": "TJELDSTØ",
    "postalCode": 5333
  },
  {
    "storeNo": 803,
    "name": "GISLAVED",
    "storeNoName": "803 GISLAVED",
    "latitude": null,
    "longitude": null,
    "county": "",
    "physicalStore": true,
    "municipality": "",
    "countryRegion": "",
    "postalCity": "",
    "postalCode": null
  },
  {
    "storeNo": 804,
    "name": "TRESTAD",
    "storeNoName": "804 TRESTAD",
    "latitude": null,
    "longitude": null,
    "county": "",
    "physicalStore": true,
    "municipality": "",
    "countryRegion": "",
    "postalCity": "",
    "postalCode": null
  },
  {
    "storeNo": 805,
    "name": "KNALLELAND",
    "storeNoName": "805 KNALLELAND",
    "latitude": null,
    "longitude": null,
    "county": "",
    "physicalStore": true,
    "municipality": "",
    "countryRegion": "",
    "postalCity": "",
    "postalCode": null
  },
  {
    "storeNo": 806,
    "name": "INGELSTA",
    "storeNoName": "806 INGELSTA",
    "latitude": null,
    "longitude": null,
    "county": "Møre og Romsdal",
    "physicalStore": true,
    "municipality": "ÅLESUND",
    "countryRegion": "Vestlandet",
    "postalCity": "ÅLESUND",
    "postalCode": 6022
  },
  {
    "storeNo": 807,
    "name": "TORNBY",
    "storeNoName": "807 TORNBY",
    "latitude": null,
    "longitude": null,
    "county": "Vestland",
    "physicalStore": true,
    "municipality": "BERGEN",
    "countryRegion": "Vestlandet",
    "postalCity": "BERGEN",
    "postalCode": 5827
  },
  {
    "storeNo": 808,
    "name": "HÂLLA",
    "storeNoName": "808 HÂLLA",
    "latitude": null,
    "longitude": null,
    "county": "",
    "physicalStore": true,
    "municipality": "",
    "countryRegion": "",
    "postalCity": "",
    "postalCode": null
  },
  {
    "storeNo": 12,
    "name": "EP EGERSUND",
    "storeNoName": "012 EP EGERSUND",
    "latitude": 58.44094,
    "longitude": 6.00725,
    "county": "Rogaland",
    "physicalStore": true,
    "municipality": "EIGERSUND",
    "countryRegion": "Vestlandet",
    "postalCity": "EGERSUND",
    "postalCode": 4373
  },
  {
    "storeNo": 446,
    "name": "EP SELLEBAKK",
    "storeNoName": "446 EP SELLEBAKK",
    "latitude": 59.22604,
    "longitude": 10.99514,
    "county": "Østfold",
    "physicalStore": true,
    "municipality": "FREDRIKSTAD",
    "countryRegion": "Østlandet",
    "postalCity": "SELLEBAKK",
    "postalCode": 1654
  },
  {
    "storeNo": 576,
    "name": "EP BOGAFJELL",
    "storeNoName": "576 EP BOGAFJELL",
    "latitude": 58.82104,
    "longitude": 5.75326,
    "county": "Rogaland",
    "physicalStore": true,
    "municipality": "SANDNES",
    "countryRegion": "Vestlandet",
    "postalCity": "SANDNES",
    "postalCode": 4324
  },
  {
    "storeNo": 643,
    "name": "EP ÅNDALSNES",
    "storeNoName": "643 EP ÅNDALSNES",
    "latitude": 62.56119,
    "longitude": 7.67855,
    "county": "Møre og Romsdal",
    "physicalStore": true,
    "municipality": "RAUMA",
    "countryRegion": "Vestlandet",
    "postalCity": "ÅNDALSNES",
    "postalCode": 6300
  },
  {
    "storeNo": 274,
    "name": "EP VADSØ",
    "storeNoName": "274 EP VADSØ",
    "latitude": 70.07999,
    "longitude": 29.71737,
    "county": "Finnmark",
    "physicalStore": true,
    "municipality": "VADSØ",
    "countryRegion": "Nord-Norge",
    "postalCity": "VADSØ",
    "postalCode": 9800
  },
  {
    "storeNo": 286,
    "name": "EP ÅSANE PLUSS",
    "storeNoName": "286 EP ÅSANE PLUSS",
    "latitude": 60.4691,
    "longitude": 5.33926,
    "county": "Vestland",
    "physicalStore": true,
    "municipality": "BERGEN",
    "countryRegion": "Vestlandet",
    "postalCity": "NYBORG",
    "postalCode": 5132
  },
  {
    "storeNo": 374,
    "name": "EP HUNSTAD",
    "storeNoName": "374 EP HUNSTAD",
    "latitude": 67.28111,
    "longitude": 14.54527,
    "county": "Nordland",
    "physicalStore": true,
    "municipality": "BODØ",
    "countryRegion": "Nord-Norge",
    "postalCity": "BODØ",
    "postalCode": 8022
  },
  {
    "storeNo": 467,
    "name": "EP KVINESDAL",
    "storeNoName": "467 EP KVINESDAL",
    "latitude": 58.32051,
    "longitude": 6.96346,
    "county": "Agder",
    "physicalStore": true,
    "municipality": "KVINESDAL",
    "countryRegion": "Sørlandet",
    "postalCity": "KVINESDAL",
    "postalCode": 4480
  },
  {
    "storeNo": 426,
    "name": "EP KOLVEREID",
    "storeNoName": "426 EP KOLVEREID",
    "latitude": 64.86468,
    "longitude": 11.59831,
    "county": "Trøndelag",
    "physicalStore": true,
    "municipality": "NÆRØYSUND",
    "countryRegion": "Trøndelag",
    "postalCity": "KOLVEREID",
    "postalCode": 7970
  },
  {
    "storeNo": 301,
    "name": "EP VENNESLA",
    "storeNoName": "301 EP VENNESLA",
    "latitude": 58.27173,
    "longitude": 7.96945,
    "county": "Agder",
    "physicalStore": true,
    "municipality": "VENNESLA",
    "countryRegion": "Sørlandet",
    "postalCity": "VENNESLA",
    "postalCode": 4700
  },
  {
    "storeNo": 293,
    "name": "EP STORHAMAR",
    "storeNoName": "293 EP STORHAMAR",
    "latitude": 60.80421,
    "longitude": 11.04435,
    "county": "Innlandet",
    "physicalStore": true,
    "municipality": "HAMAR",
    "countryRegion": "Østlandet",
    "postalCity": "HAMAR",
    "postalCode": 2316
  },
  {
    "storeNo": 471,
    "name": "EP LEVANGER",
    "storeNoName": "471 EP LEVANGER",
    "latitude": 63.73383,
    "longitude": 11.28266,
    "county": "Trøndelag",
    "physicalStore": true,
    "municipality": "LEVANGER",
    "countryRegion": "Trøndelag",
    "postalCity": "LEVANGER",
    "postalCode": 7606
  },
  {
    "storeNo": 295,
    "name": "EP MOSS PLUSS",
    "storeNoName": "295 EP MOSS PLUSS",
    "latitude": 59.41536,
    "longitude": 10.67615,
    "county": "Østfold",
    "physicalStore": true,
    "municipality": "MOSS",
    "countryRegion": "Østlandet",
    "postalCity": "MOSS",
    "postalCode": 1521
  },
  {
    "storeNo": 296,
    "name": "EP SKARNES",
    "storeNoName": "296 EP SKARNES",
    "latitude": 60.24921,
    "longitude": 11.67615,
    "county": "Innlandet",
    "physicalStore": true,
    "municipality": "SØR-ODAL",
    "countryRegion": "Østlandet",
    "postalCity": "SKARNES",
    "postalCode": 2100
  },
  {
    "storeNo": 291,
    "name": "EP TVEDESTRAND",
    "storeNoName": "291 EP TVEDESTRAND",
    "latitude": 58.6244,
    "longitude": 8.9233,
    "county": "Agder",
    "physicalStore": true,
    "municipality": "TVEDESTRAND",
    "countryRegion": "Sørlandet",
    "postalCity": "TVEDESTRAND",
    "postalCode": 4900
  },
  {
    "storeNo": 283,
    "name": "EP SØRLANDSPARKEN PLUSS",
    "storeNoName": "283 EP SØRLANDSPARKEN PLUSS",
    "latitude": 58.1794,
    "longitude": 8.12644,
    "county": "Agder",
    "physicalStore": true,
    "municipality": "KRISTIANSAND",
    "countryRegion": "Sørlandet",
    "postalCity": "KRISTIANSAND S",
    "postalCode": 4636
  },
  {
    "storeNo": 414,
    "name": "EP RINGEBU",
    "storeNoName": "414 EP RINGEBU",
    "latitude": 61.52992,
    "longitude": 10.1471,
    "county": "Innlandet",
    "physicalStore": true,
    "municipality": "RINGEBU",
    "countryRegion": "Østlandet",
    "postalCity": "RINGEBU",
    "postalCode": 2630
  },
  {
    "storeNo": 280,
    "name": "EP RENA",
    "storeNoName": "280 EP RENA",
    "latitude": 61.13277,
    "longitude": 11.3698,
    "county": "Innlandet",
    "physicalStore": true,
    "municipality": "ÅMOT",
    "countryRegion": "Østlandet",
    "postalCity": "RENA",
    "postalCode": 2450
  },
  {
    "storeNo": 608,
    "name": "EP FLEKKEFJORD",
    "storeNoName": "608 EP FLEKKEFJORD",
    "latitude": 58.29298,
    "longitude": 6.66359,
    "county": "Agder",
    "physicalStore": true,
    "municipality": "FLEKKEFJORD",
    "countryRegion": "Sørlandet",
    "postalCity": "FLEKKEFJORD",
    "postalCode": 4400
  },
  {
    "storeNo": 474,
    "name": "EP LUND",
    "storeNoName": "474 EP LUND",
    "latitude": 58.15311,
    "longitude": 8.02572,
    "county": "Agder",
    "physicalStore": true,
    "municipality": "KRISTIANSAND",
    "countryRegion": "Sørlandet",
    "postalCity": "KRISTIANSAND S",
    "postalCode": 4632
  },
  {
    "storeNo": 297,
    "name": "EP SVINESUNDPARKEN",
    "storeNoName": "297 EP SVINESUNDPARKEN",
    "latitude": 59.1288,
    "longitude": 11.27364,
    "county": "Østfold",
    "physicalStore": true,
    "municipality": "HALDEN",
    "countryRegion": "Østlandet",
    "postalCity": "BERG I ØSTFOLD",
    "postalCode": 1789
  },
  {
    "storeNo": 632,
    "name": "EP HOLMESTRAND",
    "storeNoName": "632 EP HOLMESTRAND",
    "latitude": 59.47355,
    "longitude": 10.31723,
    "county": "Vestfold",
    "physicalStore": true,
    "municipality": "HOLMESTRAND",
    "countryRegion": "Østlandet",
    "postalCity": "HOLMESTRAND",
    "postalCode": 3080
  },
  {
    "storeNo": 427,
    "name": "EP SANDE I VESTFOLD",
    "storeNoName": "427 EP SANDE I VESTFOLD",
    "latitude": 59.58413,
    "longitude": 10.21006,
    "county": "Vestfold",
    "physicalStore": true,
    "municipality": "HOLMESTRAND",
    "countryRegion": "Østlandet",
    "postalCity": "SANDE I VESTFOLD",
    "postalCode": 3070
  },
  {
    "storeNo": 304,
    "name": "EP FARSUND",
    "storeNoName": "304 EP FARSUND",
    "latitude": 58.09809,
    "longitude": 6.77089,
    "county": "Agder",
    "physicalStore": true,
    "municipality": "FARSUND",
    "countryRegion": "Sørlandet",
    "postalCity": "FARSUND",
    "postalCode": 4550
  },
  {
    "storeNo": 305,
    "name": "EP LAKSELV",
    "storeNoName": "305 EP LAKSELV",
    "latitude": 70.05203,
    "longitude": 24.97146,
    "county": "Finnmark",
    "physicalStore": true,
    "municipality": "PORSANGER PORSÁNGU PORSANKI",
    "countryRegion": "Nord-Norge",
    "postalCity": "LAKSELV",
    "postalCode": 9700
  },
  {
    "storeNo": 307,
    "name": "EP TILLER PLUSS",
    "storeNoName": "307 EP TILLER PLUSS",
    "latitude": 63.35679,
    "longitude": 10.3735,
    "county": "Trøndelag",
    "physicalStore": true,
    "municipality": "TRONDHEIM",
    "countryRegion": "Trøndelag",
    "postalCity": "TILLER",
    "postalCode": 7075
  },
  {
    "storeNo": 306,
    "name": "EP MÅLØY",
    "storeNoName": "306 EP MÅLØY",
    "latitude": 61.92162,
    "longitude": 5.15445,
    "county": "Vestland",
    "physicalStore": true,
    "municipality": "KINN",
    "countryRegion": "Vestlandet",
    "postalCity": "DEKNEPOLLEN",
    "postalCode": 6718
  },
  {
    "storeNo": 299,
    "name": "EP BJØRKELANGEN",
    "storeNoName": "299 EP BJØRKELANGEN",
    "latitude": 59.89093,
    "longitude": 11.5601,
    "county": "Akershus",
    "physicalStore": true,
    "municipality": "AURSKOG-HØLAND",
    "countryRegion": "Østlandet",
    "postalCity": "BJØRKELANGEN",
    "postalCode": 1940
  },
  {
    "storeNo": 394,
    "name": "EP GJØVIK",
    "storeNoName": "394 EP GJØVIK",
    "latitude": 60.78047,
    "longitude": 10.69246,
    "county": "Innlandet",
    "physicalStore": true,
    "municipality": "GJØVIK",
    "countryRegion": "Østlandet",
    "postalCity": "GJØVIK",
    "postalCode": 2818
  },
  {
    "storeNo": 311,
    "name": "EP BROKELANDSHEIA",
    "storeNoName": "311 EP BROKELANDSHEIA",
    "latitude": 58.82414,
    "longitude": 9.07415,
    "county": "Agder",
    "physicalStore": true,
    "municipality": "GJERSTAD",
    "countryRegion": "Sørlandet",
    "postalCity": "SUNDEBRU",
    "postalCode": 4993
  },
  {
    "storeNo": 316,
    "name": "EP KIRKENES",
    "storeNoName": "316 EP KIRKENES",
    "latitude": 69.72569,
    "longitude": 30.06846,
    "county": "Finnmark",
    "physicalStore": true,
    "municipality": "SØR-VARANGER",
    "countryRegion": "Nord-Norge",
    "postalCity": "KIRKENES",
    "postalCode": 9900
  },
  {
    "storeNo": 308,
    "name": "EP KRISTIANSUND",
    "storeNoName": "308 EP KRISTIANSUND",
    "latitude": 63.10967,
    "longitude": 7.80007,
    "county": "Møre og Romsdal",
    "physicalStore": true,
    "municipality": "KRISTIANSUND",
    "countryRegion": "Vestlandet",
    "postalCity": "KRISTIANSUND N",
    "postalCode": 6517
  },
  {
    "storeNo": 309,
    "name": "EP STEINKJER",
    "storeNoName": "309 EP STEINKJER",
    "latitude": 64.01125,
    "longitude": 11.49161,
    "county": "Trøndelag",
    "physicalStore": true,
    "municipality": "STEINKJER",
    "countryRegion": "Trøndelag",
    "postalCity": "STEINKJER",
    "postalCode": 7714
  },
  {
    "storeNo": 310,
    "name": "EP VERDAL",
    "storeNoName": "310 EP VERDAL",
    "latitude": 63.79444,
    "longitude": 11.48063,
    "county": "Trøndelag",
    "physicalStore": true,
    "municipality": "VERDAL",
    "countryRegion": "Trøndelag",
    "postalCity": "VERDAL",
    "postalCode": 7650
  },
  {
    "storeNo": 315,
    "name": "EP NORHEIMSUND",
    "storeNoName": "315 EP NORHEIMSUND",
    "latitude": 60.37217,
    "longitude": 6.13744,
    "county": "Vestland",
    "physicalStore": true,
    "municipality": "KVAM",
    "countryRegion": "Vestlandet",
    "postalCity": "NORHEIMSUND",
    "postalCode": 5600
  },
  {
    "storeNo": 387,
    "name": "EP SKEDSMO",
    "storeNoName": "387 EP SKEDSMO",
    "latitude": 60.00512,
    "longitude": 11.03322,
    "county": "Akershus",
    "physicalStore": true,
    "municipality": "LILLESTRØM",
    "countryRegion": "Østlandet",
    "postalCity": "SKEDSMOKORSET",
    "postalCode": 2020
  },
  {
    "storeNo": 317,
    "name": "EP BILLINGSTAD",
    "storeNoName": "317 EP BILLINGSTAD",
    "latitude": 59.87702,
    "longitude": 10.50069,
    "county": "Akershus",
    "physicalStore": true,
    "municipality": "ASKER",
    "countryRegion": "Østlandet",
    "postalCity": "BILLINGSTAD",
    "postalCode": 1396
  },
  {
    "storeNo": 588,
    "name": "EP NARVIK",
    "storeNoName": "588 EP NARVIK",
    "latitude": 68.43628,
    "longitude": 17.41494,
    "county": "Nordland",
    "physicalStore": true,
    "municipality": "NARVIK",
    "countryRegion": "Nord-Norge",
    "postalCity": "NARVIK",
    "postalCode": 8516
  },
  {
    "storeNo": 47,
    "name": "EP HUSNES",
    "storeNoName": "047 EP HUSNES",
    "latitude": 59.85881,
    "longitude": 5.75396,
    "county": "Vestland",
    "physicalStore": true,
    "municipality": "KVINNHERAD",
    "countryRegion": "Vestlandet",
    "postalCity": "HUSNES",
    "postalCode": 5460
  },
  {
    "storeNo": 590,
    "name": "EP DOKKA",
    "storeNoName": "590 EP DOKKA",
    "latitude": 60.83624,
    "longitude": 10.06889,
    "county": "Innlandet",
    "physicalStore": true,
    "municipality": "NORDRE LAND",
    "countryRegion": "Østlandet",
    "postalCity": "DOKKA",
    "postalCode": 2870
  },
  {
    "storeNo": 320,
    "name": "EP LADE",
    "storeNoName": "320 EP LADE",
    "latitude": 63.44017,
    "longitude": 10.46253,
    "county": "Trøndelag",
    "physicalStore": true,
    "municipality": "TRONDHEIM",
    "countryRegion": "Trøndelag",
    "postalCity": "TRONDHEIM",
    "postalCode": 7041
  },
  {
    "storeNo": 312,
    "name": "EP ØLENSVÅG",
    "storeNoName": "312 EP ØLENSVÅG",
    "latitude": 59.60504,
    "longitude": 5.75061,
    "county": "Rogaland",
    "physicalStore": true,
    "municipality": "VINDAFJORD",
    "countryRegion": "Vestlandet",
    "postalCity": "ØLENSVÅG",
    "postalCode": 5582
  },
  {
    "storeNo": 574,
    "name": "EP ÅLGÅRD",
    "storeNoName": "574 EP ÅLGÅRD",
    "latitude": 58.76628,
    "longitude": 5.86231,
    "county": "Rogaland",
    "physicalStore": true,
    "municipality": "GJESDAL",
    "countryRegion": "Vestlandet",
    "postalCity": "ÅLGÅRD",
    "postalCode": 4330
  },
  {
    "storeNo": 417,
    "name": "EP VOLDA",
    "storeNoName": "417 EP VOLDA",
    "latitude": 62.14049,
    "longitude": 6.09105,
    "county": "Møre og Romsdal",
    "physicalStore": true,
    "municipality": "VOLDA",
    "countryRegion": "Vestlandet",
    "postalCity": "VOLDA",
    "postalCode": 6100
  },
  {
    "storeNo": 466,
    "name": "EP BRENNÅSEN",
    "storeNoName": "466 EP BRENNÅSEN",
    "latitude": 58.13867,
    "longitude": 7.8559,
    "county": "Agder",
    "physicalStore": true,
    "municipality": "KRISTIANSAND",
    "countryRegion": "Sørlandet",
    "postalCity": "BRENNÅSEN",
    "postalCode": 4647
  },
  {
    "storeNo": 451,
    "name": "LETTKAUP EHF. FISKISLØD",
    "storeNoName": "451 LETTKAUP EHF. FISKISLØD",
    "latitude": null,
    "longitude": null,
    "county": "",
    "physicalStore": true,
    "municipality": "",
    "countryRegion": "",
    "postalCity": "",
    "postalCode": 101
  },
  {
    "storeNo": 452,
    "name": "LETTKAUP EHF. SELFOSS",
    "storeNoName": "452 LETTKAUP EHF. SELFOSS",
    "latitude": null,
    "longitude": null,
    "county": "",
    "physicalStore": true,
    "municipality": "",
    "countryRegion": "",
    "postalCity": "",
    "postalCode": 800
  },
  {
    "storeNo": 453,
    "name": "LETTKAUP EHF. DALEVEGUR",
    "storeNoName": "453 LETTKAUP EHF. DALEVEGUR",
    "latitude": null,
    "longitude": null,
    "county": "",
    "physicalStore": true,
    "municipality": "",
    "countryRegion": "",
    "postalCity": "",
    "postalCode": 200
  },
  {
    "storeNo": 455,
    "name": "LETTKAUP EHF. AKUREYRI",
    "storeNoName": "455 LETTKAUP EHF. AKUREYRI",
    "latitude": null,
    "longitude": null,
    "county": "",
    "physicalStore": true,
    "municipality": "",
    "countryRegion": "",
    "postalCity": "",
    "postalCode": 600
  },
  {
    "storeNo": 454,
    "name": "LETTKAUP EHF. HAFNAFJORDUR",
    "storeNoName": "454 LETTKAUP EHF. HAFNAFJORDUR",
    "latitude": null,
    "longitude": null,
    "county": "",
    "physicalStore": true,
    "municipality": "",
    "countryRegion": "",
    "postalCity": "",
    "postalCode": 220
  },
  {
    "storeNo": 456,
    "name": "LETTKAUP EHF. STEKKJABREKKUR",
    "storeNoName": "456 LETTKAUP EHF. STEKKJABREKKUR",
    "latitude": null,
    "longitude": null,
    "county": "",
    "physicalStore": true,
    "municipality": "",
    "countryRegion": "",
    "postalCity": "",
    "postalCode": 113
  },
  {
    "storeNo": 1,
    "name": "NY1",
    "storeNoName": "0001 NY1",
    "latitude": null,
    "longitude": null,
    "county": "",
    "physicalStore": true,
    "municipality": "",
    "countryRegion": "",
    "postalCity": "",
    "postalCode": null
  },
  {
    "storeNo": 2,
    "name": "NY2",
    "storeNoName": "00002 NY2",
    "latitude": null,
    "longitude": null,
    "county": "",
    "physicalStore": true,
    "municipality": "",
    "countryRegion": "",
    "postalCity": "",
    "postalCode": null
  },
  {
    "storeNo": 3,
    "name": "NY3",
    "storeNoName": "0003 NY3",
    "latitude": null,
    "longitude": null,
    "county": "",
    "physicalStore": true,
    "municipality": "",
    "countryRegion": "",
    "postalCity": "",
    "postalCode": null
  },
  {
    "storeNo": 4,
    "name": "NY4",
    "storeNoName": "0004 NY4",
    "latitude": null,
    "longitude": null,
    "county": "",
    "physicalStore": true,
    "municipality": "",
    "countryRegion": "",
    "postalCity": "",
    "postalCode": null
  },
  {
    "storeNo": 300,
    "name": "EP REVETAL",
    "storeNoName": "300 EP REVETAL",
    "latitude": 59.3694,
    "longitude": 10.26458,
    "county": "Vestfold",
    "physicalStore": true,
    "municipality": "TØNSBERG",
    "countryRegion": "Østlandet",
    "postalCity": "REVETAL",
    "postalCode": 3174
  },
  {
    "storeNo": 323,
    "name": "EP BRANDBU",
    "storeNoName": "323 EP BRANDBU",
    "latitude": 60.41727,
    "longitude": 10.51537,
    "county": "Innlandet",
    "physicalStore": true,
    "municipality": "GRAN",
    "countryRegion": "Østlandet",
    "postalCity": "BRANDBU",
    "postalCode": 2760
  },
  {
    "storeNo": 386,
    "name": "EP MJØNDALEN",
    "storeNoName": "386 EP MJØNDALEN",
    "latitude": 59.74887,
    "longitude": 10.02697,
    "county": "Buskerud",
    "physicalStore": true,
    "municipality": "DRAMMEN",
    "countryRegion": "Østlandet",
    "postalCity": "MJØNDALEN",
    "postalCode": 3050
  },
  {
    "storeNo": 324,
    "name": "EP SANDVIKA",
    "storeNoName": "324 EP SANDVIKA",
    "latitude": 59.88717,
    "longitude": 10.51848,
    "county": "Akershus",
    "physicalStore": true,
    "municipality": "BÆRUM",
    "countryRegion": "Østlandet",
    "postalCity": "SANDVIKA",
    "postalCode": 1337
  },
  {
    "storeNo": 325,
    "name": "EP KYRKSÆTERØRA",
    "storeNoName": "325 EP KYRKSÆTERØRA",
    "latitude": 63.29347,
    "longitude": 9.08651,
    "county": "Trøndelag",
    "physicalStore": true,
    "municipality": "HEIM",
    "countryRegion": "Trøndelag",
    "postalCity": "KYRKSÆTERØRA",
    "postalCode": 7200
  },
  {
    "storeNo": 326,
    "name": "EP ØREBEKK",
    "storeNoName": "326 EP ØREBEKK",
    "latitude": 59.23222,
    "longitude": 10.90533,
    "county": "Østfold",
    "physicalStore": true,
    "municipality": "FREDRIKSTAD",
    "countryRegion": "Østlandet",
    "postalCity": "GRESSVIK",
    "postalCode": 1624
  },
  {
    "storeNo": 327,
    "name": "EP KRØGENES",
    "storeNoName": "327 EP KRØGENES",
    "latitude": 58.47355,
    "longitude": 8.81403,
    "county": "Agder",
    "physicalStore": true,
    "municipality": "ARENDAL",
    "countryRegion": "Sørlandet",
    "postalCity": "ARENDAL",
    "postalCode": 4841
  },
  {
    "storeNo": 390,
    "name": "EP FLATÅSEN",
    "storeNoName": "390 EP FLATÅSEN",
    "latitude": 63.37395,
    "longitude": 10.34572,
    "county": "Trøndelag",
    "physicalStore": true,
    "municipality": "TRONDHEIM",
    "countryRegion": "Trøndelag",
    "postalCity": "FLATÅSEN",
    "postalCode": 7079
  },
  {
    "storeNo": 329,
    "name": "EP HOMMELVIK",
    "storeNoName": "329 EP HOMMELVIK",
    "latitude": 63.41524,
    "longitude": 10.80752,
    "county": "Trøndelag",
    "physicalStore": true,
    "municipality": "MALVIK",
    "countryRegion": "Trøndelag",
    "postalCity": "HOMMELVIK",
    "postalCode": 7550
  },
  {
    "storeNo": 330,
    "name": "EP SYKKYLVEN",
    "storeNoName": "330 EP SYKKYLVEN",
    "latitude": 62.38001,
    "longitude": 6.57343,
    "county": "Møre og Romsdal",
    "physicalStore": true,
    "municipality": "SYKKYLVEN",
    "countryRegion": "Vestlandet",
    "postalCity": "SYKKYLVEN",
    "postalCode": 6230
  },
  {
    "storeNo": 332,
    "name": "EP ÅLESUND PLUSS",
    "storeNoName": "332 EP ÅLESUND PLUSS",
    "latitude": 62.47067,
    "longitude": 6.35431,
    "county": "Møre og Romsdal",
    "physicalStore": true,
    "municipality": "ÅLESUND",
    "countryRegion": "Vestlandet",
    "postalCity": "ÅLESUND",
    "postalCode": 6018
  },
  {
    "storeNo": 333,
    "name": "EP STØREN",
    "storeNoName": "333 EP STØREN",
    "latitude": 63.04166,
    "longitude": 10.28826,
    "county": "Trøndelag",
    "physicalStore": true,
    "municipality": "MIDTRE GAULDAL",
    "countryRegion": "Trøndelag",
    "postalCity": "STØREN",
    "postalCode": 7290
  },
  {
    "storeNo": 56,
    "name": "EP OS",
    "storeNoName": "056 EP OS",
    "latitude": 60.20315,
    "longitude": 5.45643,
    "county": "Vestland",
    "physicalStore": true,
    "municipality": "BJØRNAFJORDEN",
    "countryRegion": "Vestlandet",
    "postalCity": "OS",
    "postalCode": 5210
  },
  {
    "storeNo": 340,
    "name": "EP LOM",
    "storeNoName": "340 EP LOM",
    "latitude": 61.83923,
    "longitude": 8.57833,
    "county": "Innlandet",
    "physicalStore": true,
    "municipality": "LOM",
    "countryRegion": "Østlandet",
    "postalCity": "LOM",
    "postalCode": 2686
  },
  {
    "storeNo": 346,
    "name": "EP GAUSDAL",
    "storeNoName": "346 EP GAUSDAL",
    "latitude": 61.22638,
    "longitude": 10.22247,
    "county": "Innlandet",
    "physicalStore": true,
    "municipality": "GAUSDAL",
    "countryRegion": "Østlandet",
    "postalCity": "ØSTRE GAUSDAL",
    "postalCode": 2651
  },
  {
    "storeNo": 353,
    "name": "EP GRINI PLUSS",
    "storeNoName": "353 EP GRINI PLUSS",
    "latitude": 59.94561,
    "longitude": 10.59776,
    "county": "Akershus",
    "physicalStore": true,
    "municipality": "BÆRUM",
    "countryRegion": "Østlandet",
    "postalCity": "ØSTERÅS",
    "postalCode": 1361
  },
  {
    "storeNo": 350,
    "name": "EP ROA",
    "storeNoName": "350 EP ROA",
    "latitude": 60.28642,
    "longitude": 10.62679,
    "county": "Akershus",
    "physicalStore": true,
    "municipality": "LUNNER",
    "countryRegion": "Østlandet",
    "postalCity": "ROA",
    "postalCode": 2740
  },
  {
    "storeNo": 57,
    "name": "EP ALTA",
    "storeNoName": "057 EP ALTA",
    "latitude": 69.9762,
    "longitude": 23.3243,
    "county": "Finnmark",
    "physicalStore": true,
    "municipality": "ALTA",
    "countryRegion": "Nord-Norge",
    "postalCity": "ALTA",
    "postalCode": 9515
  },
  {
    "storeNo": 347,
    "name": "EP VATNE",
    "storeNoName": "347 EP VATNE",
    "latitude": 62.54451,
    "longitude": 6.59145,
    "county": "Møre og Romsdal",
    "physicalStore": true,
    "municipality": "HARAM",
    "countryRegion": "Vestlandet",
    "postalCity": "VATNE",
    "postalCode": 6265
  },
  {
    "storeNo": 577,
    "name": "EP KLEPP",
    "storeNoName": "577 EP KLEPP",
    "latitude": 58.77801,
    "longitude": 5.62843,
    "county": "Rogaland",
    "physicalStore": true,
    "municipality": "KLEPP",
    "countryRegion": "Vestlandet",
    "postalCity": "KLEPPE",
    "postalCode": 4352
  },
  {
    "storeNo": 349,
    "name": "EP RISSA",
    "storeNoName": "349 EP RISSA",
    "latitude": 63.58407,
    "longitude": 9.95663,
    "county": "Trøndelag",
    "physicalStore": true,
    "municipality": "INDRE FOSEN",
    "countryRegion": "Trøndelag",
    "postalCity": "RISSA",
    "postalCode": 7100
  },
  {
    "storeNo": 360,
    "name": "EP AVERØY",
    "storeNoName": "360 EP AVERØY",
    "latitude": 63.05172,
    "longitude": 7.63204,
    "county": "Møre og Romsdal",
    "physicalStore": true,
    "municipality": "AVERØY",
    "countryRegion": "Vestlandet",
    "postalCity": "AVERØY",
    "postalCode": 6530
  },
  {
    "storeNo": 58,
    "name": "EP KARMØY",
    "storeNoName": "058 EP KARMØY",
    "latitude": 59.29148,
    "longitude": 5.28929,
    "county": "Rogaland",
    "physicalStore": true,
    "municipality": "KARMØY",
    "countryRegion": "Vestlandet",
    "postalCity": "KOPERVIK",
    "postalCode": 4250
  },
  {
    "storeNo": 603,
    "name": "EP VOSS",
    "storeNoName": "603 EP VOSS",
    "latitude": 60.6279,
    "longitude": 6.42603,
    "county": "Vestland",
    "physicalStore": true,
    "municipality": "VOSS",
    "countryRegion": "Vestlandet",
    "postalCity": "VOSS",
    "postalCode": 5705
  },
  {
    "storeNo": 606,
    "name": "EP KONGSBERG SØLVPARKEN",
    "storeNoName": "606 EP KONGSBERG SØLVPARKEN",
    "latitude": 59.669,
    "longitude": 9.65425,
    "county": "Buskerud",
    "physicalStore": true,
    "municipality": "KONGSBERG",
    "countryRegion": "Østlandet",
    "postalCity": "KONGSBERG",
    "postalCode": 3602
  },
  {
    "storeNo": 489,
    "name": "EP ORKANGER",
    "storeNoName": "489 EP ORKANGER",
    "latitude": 63.30598,
    "longitude": 9.8386,
    "county": "Trøndelag",
    "physicalStore": true,
    "municipality": "ORKLAND",
    "countryRegion": "Trøndelag",
    "postalCity": "ORKANGER",
    "postalCode": 7300
  },
  {
    "storeNo": 192,
    "name": "EP FLORØ",
    "storeNoName": "192 EP FLORØ",
    "latitude": 61.60052,
    "longitude": 5.0474,
    "county": "Vestland",
    "physicalStore": true,
    "municipality": "KINN",
    "countryRegion": "Vestlandet",
    "postalCity": "FLORØ",
    "postalCode": 6900
  },
  {
    "storeNo": 437,
    "name": "EP GRIMSTAD",
    "storeNoName": "437 EP GRIMSTAD",
    "latitude": 58.34273,
    "longitude": 8.55371,
    "county": "Agder",
    "physicalStore": true,
    "municipality": "GRIMSTAD",
    "countryRegion": "Sørlandet",
    "postalCity": "GRIMSTAD",
    "postalCode": 4886
  },
  {
    "storeNo": 592,
    "name": "EP BARDUFOSS",
    "storeNoName": "592 EP BARDUFOSS",
    "latitude": 69.09414,
    "longitude": 18.59034,
    "county": "Troms",
    "physicalStore": true,
    "municipality": "MÅLSELV",
    "countryRegion": "Nord-Norge",
    "postalCity": "BARDUFOSS",
    "postalCode": 9325
  },
  {
    "storeNo": 609,
    "name": "EP MELHUS",
    "storeNoName": "609 EP MELHUS",
    "latitude": 63.28613,
    "longitude": 10.28416,
    "county": "Trøndelag",
    "physicalStore": true,
    "municipality": "MELHUS",
    "countryRegion": "Trøndelag",
    "postalCity": "MELHUS",
    "postalCode": 7224
  },
  {
    "storeNo": 573,
    "name": "EP ÅSEN",
    "storeNoName": "573 EP ÅSEN",
    "latitude": 58.94323,
    "longitude": 5.72884,
    "county": "Rogaland",
    "physicalStore": true,
    "municipality": "STAVANGER",
    "countryRegion": "Vestlandet",
    "postalCity": "STAVANGER",
    "postalCode": 4017
  },
  {
    "storeNo": 344,
    "name": "EP STOA",
    "storeNoName": "344 EP STOA",
    "latitude": 58.46502,
    "longitude": 8.71261,
    "county": "Agder",
    "physicalStore": true,
    "municipality": "ARENDAL",
    "countryRegion": "Sørlandet",
    "postalCity": "ARENDAL",
    "postalCode": 4848
  },
  {
    "storeNo": 614,
    "name": "EP KILEN TØNSBERG",
    "storeNoName": "614 EP KILEN TØNSBERG",
    "latitude": 59.27379,
    "longitude": 10.42929,
    "county": "Vestfold",
    "physicalStore": true,
    "municipality": "TØNSBERG",
    "countryRegion": "Østlandet",
    "postalCity": "TØNSBERG",
    "postalCode": 3117
  },
  {
    "storeNo": 199,
    "name": "EP DRØBAK",
    "storeNoName": "199 EP DRØBAK",
    "latitude": 59.67376,
    "longitude": 10.65719,
    "county": "Akershus",
    "physicalStore": true,
    "municipality": "FROGN",
    "countryRegion": "Østlandet",
    "postalCity": "DRØBAK",
    "postalCode": 1448
  },
  {
    "storeNo": 506,
    "name": "EP BJUGN",
    "storeNoName": "506 EP BJUGN",
    "latitude": 63.76612,
    "longitude": 9.80779,
    "county": "Trøndelag",
    "physicalStore": true,
    "municipality": "ØRLAND",
    "countryRegion": "Trøndelag",
    "postalCity": "BJUGN",
    "postalCode": 7160
  },
  {
    "storeNo": 465,
    "name": "EP SURNADAL",
    "storeNoName": "465 EP SURNADAL",
    "latitude": 62.97002,
    "longitude": 8.71288,
    "county": "Møre og Romsdal",
    "physicalStore": true,
    "municipality": "SURNADAL",
    "countryRegion": "Vestlandet",
    "postalCity": "SURNADAL",
    "postalCode": 6650
  },
  {
    "storeNo": 484,
    "name": "EP NORDFJORDEID",
    "storeNoName": "484 EP NORDFJORDEID",
    "latitude": 61.90967,
    "longitude": 6.00291,
    "county": "Vestland",
    "physicalStore": true,
    "municipality": "STAD",
    "countryRegion": "Vestlandet",
    "postalCity": "NORDFJORDEID",
    "postalCode": 6770
  },
  {
    "storeNo": 488,
    "name": "EP KVALA",
    "storeNoName": "488 EP KVALA",
    "latitude": 59.43764,
    "longitude": 5.26845,
    "county": "Rogaland",
    "physicalStore": true,
    "municipality": "HAUGESUND",
    "countryRegion": "Vestlandet",
    "postalCity": "HAUGESUND",
    "postalCode": 5516
  },
  {
    "storeNo": 445,
    "name": "EP SELJORD",
    "storeNoName": "445 EP SELJORD",
    "latitude": 59.48082,
    "longitude": 8.63031,
    "county": "Telemark",
    "physicalStore": true,
    "municipality": "SELJORD",
    "countryRegion": "Østlandet",
    "postalCity": "SELJORD",
    "postalCode": 3840
  },
  {
    "storeNo": 599,
    "name": "EP TYNSET",
    "storeNoName": "599 EP TYNSET",
    "latitude": 62.27695,
    "longitude": 10.78023,
    "county": "Innlandet",
    "physicalStore": true,
    "municipality": "TYNSET",
    "countryRegion": "Østlandet",
    "postalCity": "TYNSET",
    "postalCode": 2500
  },
  {
    "storeNo": 850,
    "name": "New Store",
    "storeNoName": "850 New Store",
    "latitude": null,
    "longitude": null,
    "county": "",
    "physicalStore": null,
    "municipality": "",
    "countryRegion": "",
    "postalCity": "",
    "postalCode": null
  },
  {
    "storeNo": 137,
    "name": "EP LENA",
    "storeNoName": "137 EP LENA",
    "latitude": null,
    "longitude": null,
    "county": "Innlandet",
    "physicalStore": null,
    "municipality": "",
    "countryRegion": "Østlandet",
    "postalCity": "",
    "postalCode": null
  },
  {
    "storeNo": 42,
    "name": "EP Holmestrand",
    "storeNoName": "042 EP Holmestrand",
    "latitude": null,
    "longitude": null,
    "county": "Vestfold",
    "physicalStore": null,
    "municipality": "",
    "countryRegion": "Østlandet",
    "postalCity": "",
    "postalCode": null
  },
  {
    "storeNo": 269,
    "name": "EP Leira",
    "storeNoName": "269 EP Leira",
    "latitude": null,
    "longitude": null,
    "county": "Innlandet",
    "physicalStore": null,
    "municipality": "",
    "countryRegion": "Østlandet",
    "postalCity": "",
    "postalCode": null
  },
  {
    "storeNo": 210,
    "name": "EP OTTA",
    "storeNoName": "210 EP OTTA",
    "latitude": null,
    "longitude": null,
    "county": "Innlandet",
    "physicalStore": null,
    "municipality": "",
    "countryRegion": "Østlandet",
    "postalCity": "",
    "postalCode": null
  },
  {
    "storeNo": 355,
    "name": "EP ÅNDALSNES",
    "storeNoName": "355 EP ÅNDALSNES",
    "latitude": null,
    "longitude": null,
    "county": "Møre og Romsdal",
    "physicalStore": null,
    "municipality": "",
    "countryRegion": "Vestlandet",
    "postalCity": "",
    "postalCode": null
  },
  {
    "storeNo": 25,
    "name": "EP JØRPELAND/STRAND",
    "storeNoName": "025 EP JØRPELAND/STRAND",
    "latitude": null,
    "longitude": null,
    "county": "Rogaland",
    "physicalStore": null,
    "municipality": "",
    "countryRegion": "Vestlandet",
    "postalCity": "",
    "postalCode": null
  },
  {
    "storeNo": 29,
    "name": "EP MANDAL",
    "storeNoName": "029 EP MANDAL",
    "latitude": null,
    "longitude": null,
    "county": "Agder",
    "physicalStore": null,
    "municipality": "",
    "countryRegion": "Sørlandet",
    "postalCity": "",
    "postalCode": null
  }
 ]